[
 {
   "Category": "ATM",
   "Name": "ATM - Maybank",
   "Full_Address": "MTLD, Lot 4032, Block 26, Jalan Kuching - Kota Samarahan, 94300 Kota Samarahan, Sarawak",
   "Street_Address": "MTLD,  Lot 4032",
   "City": "94300 Kota Samarahan",
   "State": "Sarawak",
   "Zip": "k",
   "Lat": 1.4686489,
   "Lng": 110.417368
 },
 {
   "Category": "ATM",
   "Name": "ATM - RHB Bank",
   "Full_Address": "Lot 550, Block 233, Penrissen Road Station, Mile 5 1/2, Penrissen Road, Taman Sarmax, 93250 Kuching, Sarawak",
   "Street_Address": "Lot 550,  Block 233",
   "City": "93250 Kuching",
   "State": "Sarawak",
   "Zip": "k",
   "Lat": 1.487857,
   "Lng": 110.330492
 },
 {
   "Category": "ATM",
   "Name": "Cimb",
   "Full_Address": "193b, Jalan Bertingkat Skudai, Kampung Skudai Kiri, 80200 Johor Bahru, Johor",
   "Street_Address": "193b,  Jalan Bertingkat Skudai",
   "City": "80200 Johor Bahru",
   "State": "Johor",
   "Zip": "r",
   "Lat": 1.4886516,
   "Lng": 103.71246
 },
 {
   "Category": "ATM",
   "Name": "ATM - Public Bank",
   "Full_Address": "2, Jalan Setia Raja, Taman Stutong Indah, 93350 Kuching, Sarawak",
   "Street_Address": "2,  Jalan Setia Raja",
   "City": "93350 Kuching",
   "State": "Sarawak",
   "Zip": "k",
   "Lat": 1.5200719,
   "Lng": 110.3789564
 },
 {
   "Category": "ATM",
   "Name": "ATM - AmBank",
   "Full_Address": "City One Megamall, No. 1, Jalan Song, Taman Phoning, 93350 Kuching, Sarawak",
   "Street_Address": "City One Megamall,  No. 1",
   "City": "93350 Kuching",
   "State": "Sarawak",
   "Zip": "k",
   "Lat": 1.520446,
   "Lng": 110.355327
 },
 {
   "Category": "ATM",
   "Name": "ATM - Maybank @ Sarawak Plaza",
   "Full_Address": "Jalan Tunku Abdul Rahman, 93100 Kuching, Sarawak",
   "Street_Address": "Jalan Tunku Abdul Rahman",
   "City": "93100 Kuching",
   "State": "Sarawak",
   "Zip": "k",
   "Lat": 1.557794,
   "Lng": 110.3534122
 },
 {
   "Category": "ATM",
   "Name": "ATM - RHB Bank",
   "Full_Address": "Lot 1165, Block 119, Jln Demak Jaya, Petra Jaya, 93050 Kuching, Sarawak",
   "Street_Address": "Lot 1165,  Block 119",
   "City": "93050 Kuching",
   "State": "Sarawak",
   "Zip": "k",
   "Lat": 1.580009,
   "Lng": 110.371324
 },
 {
   "Category": "ATM",
   "Name": "Affinbank",
   "Full_Address": "BHPetrol, Lot 2083, Jalan Johor, Taman Medan Jaya, 81900 Kota Tinggi, Johor",
   "Street_Address": "BHPetrol,  Lot 2083",
   "City": "81900 Kota Tinggi",
   "State": "Johor",
   "Zip": "r",
   "Lat": 1.7192217,
   "Lng": 103.8886784
 },
 {
   "Category": "ATM",
   "Name": "AmBank",
   "Full_Address": "Lot 138, Carrefour Johor Bahru,Batu 7.5, Jalan Kota Tinggi, 81100, Johor, 81100",
   "Street_Address": "Lot 138,  Carrefour Johor Bahru",
   "City": "Johor",
   "State": "81100",
   "Zip": "0",
   "Lat": 1.732867,
   "Lng": 103.9014119
 },
 {
   "Category": "ATM",
   "Name": "UOB Kluang",
   "Full_Address": "14, Jalan Dato Kaptain Ahmad, Kampung Masjid Lama, 86000 Kluang, Johor",
   "Street_Address": "14,  Jalan Dato Kaptain Ahmad",
   "City": "86000 Kluang",
   "State": "Johor",
   "Zip": "r",
   "Lat": 2.0322003,
   "Lng": 103.320348
 },
 {
   "Category": "ATM",
   "Name": "Maybank ATM AEON Big",
   "Full_Address": "Taman Aman, 86000 Kluang, Johor",
   "Street_Address": "Taman Aman",
   "City": "86000 Kluang",
   "State": "Johor",
   "Zip": "r",
   "Lat": 2.036764,
   "Lng": 103.3340325
 },
 {
   "Category": "ATM",
   "Name": "ATM - Maybank Kluang Mall",
   "Full_Address": "Kluang Mall, Jalan Rambutan, Johor, 86000 Kluang",
   "Street_Address": "Kluang Mall,  Jalan Rambutan",
   "City": "Johor",
   "State": "86000",
   "Zip": "Kluang",
   "Lat": 2.0400647,
   "Lng": 103.3200665
 },
 {
   "Category": "ATM",
   "Name": "Hong Leong",
   "Full_Address": "120, Jalan Mersing, Kampung Masjid Lama, 86000 Kluang, Johor",
   "Street_Address": "120,  Jalan Mersing",
   "City": "86000 Kluang",
   "State": "Johor",
   "Zip": "r",
   "Lat": 2.0658412,
   "Lng": 103.3643545
 },
 {
   "Category": "ATM",
   "Name": "Bank Rakyat, Sarikei",
   "Full_Address": "2013, Jalan Masjid Lama, Bandar Sarikei, 96100 Sarikei, Sarawak",
   "Street_Address": "2013,  Jalan Masjid Lama",
   "City": "96100 Sarikei",
   "State": "Sarawak",
   "Zip": "k",
   "Lat": 2.1304964,
   "Lng": 111.5180191
 },
 {
   "Category": "ATM",
   "Name": "ATM - AMBank",
   "Full_Address": "Ground & 1st Floor No. 18A & 18B, Lorong Tun Razak 96100 Sarikei, Sarawak",
   "Street_Address": "Ground & 1st Floor No. 18A & 18B",
   "City": "Lorong Tun Razak 96100 Sarikei",
   "State": "Sarawak",
   "Zip": "k",
   "Lat": 2.1306455,
   "Lng": 111.5184966
 },
 {
   "Category": "ATM",
   "Name": "Standard Chartered Bank, Taman Melaka Raya ATM",
   "Full_Address": "Jalan Melaka Raya 8, Taman Melaka Raya, 75000 Melaka",
   "Street_Address": "Jalan Melaka Raya 8",
   "City": "Taman Melaka Raya",
   "State": "75000",
   "Zip": "Melaka",
   "Lat": 2.1857117,
   "Lng": 102.2559152
 },
 {
   "Category": "ATM",
   "Name": "UOB Plaza Mahkota",
   "Full_Address": "1, Jalan PM5, Plaza Mahkota, 75000 Melaka",
   "Street_Address": "1,  Jalan PM5",
   "City": "Plaza Mahkota",
   "State": "75000",
   "Zip": "Melaka",
   "Lat": 2.1887482,
   "Lng": 102.2474287
 },
 {
   "Category": "ATM",
   "Name": "Bank Islam Malaysia Berhad",
   "Full_Address": "Bangunan Tabung Haji Melaka, Lot 250, Jalan Banda Kaba, Melaka, 75740",
   "Street_Address": "Bangunan Tabung Haji Melaka,  Lot 250",
   "City": "Melaka",
   "State": "75740",
   "Zip": "0",
   "Lat": 2.195033,
   "Lng": 102.251319
 },
 {
   "Category": "ATM",
   "Name": "Maybank",
   "Full_Address": "Melaka Main Branch, 173 114 & 114a Graha Peladang, Jalan Hang Tuah, 75300 Malacca",
   "Street_Address": "Melaka Main Branch,  173 114 & 114a Graha Peladang",
   "City": "Jalan Hang Tuah",
   "State": "75300",
   "Zip": "Malacca",
   "Lat": 2.205638,
   "Lng": 102.245711
 },
 {
   "Category": "ATM",
   "Name": "UOB Malim",
   "Full_Address": "1, Jalan PPM 8, Plaza Pandan Malim Business Park Jalan, 75250 Malacca",
   "Street_Address": "1,  Jalan PPM 8",
   "City": "Plaza Pandan Malim Business Park Jalan",
   "State": "75250",
   "Zip": "Malacca",
   "Lat": 2.2288742,
   "Lng": 102.2271047
 },
 {
   "Category": "ATM",
   "Name": "ATM - Maybank Petronas Tangkak",
   "Full_Address": "1205, Jalan Muar, Kampung Tanjong Batu 15, 84900 Tangkak, Johor",
   "Street_Address": "1205,  Jalan Muar",
   "City": "84900 Tangkak",
   "State": "Johor",
   "Zip": "r",
   "Lat": 2.2614134,
   "Lng": 102.5368853
 },
 {
   "Category": "ATM",
   "Name": "ATM - Citibank Malaysia - Melaka",
   "Full_Address": "DT3615, Jalan Angkasa Nuri 1, Taman Angkasa Nuri, 76100 Durian Tunggal, Malacca",
   "Street_Address": "DT3615,  Jalan Angkasa Nuri 1",
   "City": "76100 Durian Tunggal",
   "State": "Malacca",
   "Zip": "a",
   "Lat": 2.275035,
   "Lng": 102.247605
 },
 {
   "Category": "ATM",
   "Name": "ATM - Maybank Petronas",
   "Full_Address": "Jalan Segamat, Bandar Segamat Baru, 85000 Segamat, Johor",
   "Street_Address": "Jalan Segamat,  Bandar Segamat Baru",
   "City": "85000 Segamat",
   "State": "Johor",
   "Zip": "r",
   "Lat": 2.4911211,
   "Lng": 102.844532
 },
 {
   "Category": "ATM",
   "Name": "Hong Leong Bank @ Segamat",
   "Full_Address": "No. 43A & 45, Jalan Genuang, Kampung Abdullah, 85000, Segamat, Johor, 85000",
   "Street_Address": "No. 43A & 45,  Jalan Genuang",
   "City": "Johor",
   "State": "85000",
   "Zip": "0",
   "Lat": 2.499708,
   "Lng": 102.8269247
 },
 {
   "Category": "ATM",
   "Name": "CIMB Bank Berhad - ATM",
   "Full_Address": "No. 113, Jalan Genuang, 85000, Segamat, Johor, Malaysia, 85000 Segamat District",
   "Street_Address": "No. 113,  Jalan Genuang",
   "City": "Malaysia",
   "State": "85000",
   "Zip": "Segamat District",
   "Lat": 2.5033372,
   "Lng": 102.8208521
 },
 {
   "Category": "ATM",
   "Name": "ATMs- Maybank Petronas Rembau",
   "Full_Address": "71300 Rembau, Negeri Sembilan",
   "Street_Address": "",
   "City": "71300 Rembau",
   "State": "Negeri",
   "Zip": "Sembilan",
   "Lat": 2.5900829,
   "Lng": 102.0970745
 },
 {
   "Category": "ATM",
   "Name": "Maybank",
   "Full_Address": "Kuala Pilah Branch, 95-6 Jalan Dato' Undang Johol, 72000 Kuala Pilah, Negeri Sembilan",
   "Street_Address": "Kuala Pilah Branch,  95-6 Jalan Dato' Undang Johol",
   "City": "72000 Kuala Pilah",
   "State": "Negeri",
   "Zip": "Sembilan",
   "Lat": 2.730735,
   "Lng": 102.246399
 },
 {
   "Category": "ATM",
   "Name": "Hong Leong Bank @ Bureau De' Change, LCCT",
   "Full_Address": "Lot LCPC 05, Public Concourse Area, Passenger Level, Low Cost Airline Terminal, KL International Airport, 64000, Sepang, Selangor, 64000",
   "Street_Address": "Lot LCPC 05,  Public Concourse Area",
   "City": "Selangor",
   "State": "64000",
   "Zip": "0",
   "Lat": 2.755672,
   "Lng": 101.70539
 },
 {
   "Category": "ATM",
   "Name": "CIMB Bank Berhad - ATM",
   "Full_Address": "KL International Airport, Main Terminal Building, Lot MTBD 14 (B), Departure Level, Level 5, Jalan Cta 2, 64000, Sepang, Selangor, Malaysia, 64000 Sepang",
   "Street_Address": "KL International Airport,  Main Terminal Building",
   "City": "Malaysia",
   "State": "64000",
   "Zip": "Sepang",
   "Lat": 2.7642202,
   "Lng": 101.6982079
 },
 {
   "Category": "ATM",
   "Name": "Tabung Haji Putrajaya",
   "Full_Address": "Jalan Tuanku Abdul Rahman, Presint 3, 62000 Putrajaya, Wilayah Persekutuan Putrajaya",
   "Street_Address": "Jalan Tuanku Abdul Rahman,  Presint 3",
   "City": "62000 Putrajaya",
   "State": "Wilayah",
   "Zip": "Persekutuan Putrajaya",
   "Lat": 2.9179093,
   "Lng": 101.6813416
 },
 {
   "Category": "ATM",
   "Name": "Bank Simpanan Nasional",
   "Full_Address": "KEMENTERIAN KEWANGAN, Persiaran Perdana, Presint 2, 62000 Putrajaya, Wilayah Persekutuan Putrajaya",
   "Street_Address": "KEMENTERIAN KEWANGAN,  Persiaran Perdana",
   "City": "62000 Putrajaya",
   "State": "Wilayah",
   "Zip": "Persekutuan Putrajaya",
   "Lat": 2.9243182,
   "Lng": 101.6878083
 },
 {
   "Category": "ATM",
   "Name": "Affin Bank",
   "Full_Address": "KEMENTERIAN KEWANGAN, 1, Persiaran Perdana, Presint 2, 62594 Putrajaya, Wilayah Persekutuan Putrajaya",
   "Street_Address": "KEMENTERIAN KEWANGAN,  1",
   "City": "62594 Putrajaya",
   "State": "Wilayah",
   "Zip": "Persekutuan Putrajaya",
   "Lat": 2.9293016,
   "Lng": 101.6895504
 },
 {
   "Category": "ATM",
   "Name": "RHB Bank",
   "Full_Address": "Petronas Petrol Station Putrajaya Precinct 9, No. PT 1442, HS (M) 668, Mukim Dengkil, Precinct 9, Kuala Lumpur, 62050 Putrajaya",
   "Street_Address": "Petronas Petrol Station Putrajaya Precinct 9,  No. PT 1442",
   "City": "Kuala Lumpur",
   "State": "62050",
   "Zip": "Putrajaya",
   "Lat": 2.9360343,
   "Lng": 101.6732613
 },
 {
   "Category": "ATM",
   "Name": "Affin",
   "Full_Address": "Blok C7, Suruhanjaya Pilihan Raya Malaysia, Presint 1, 62690 Putrajaya",
   "Street_Address": "Blok C7,  Suruhanjaya Pilihan Raya Malaysia",
   "City": "Presint 1",
   "State": "62690",
   "Zip": "Putrajaya",
   "Lat": 2.93696,
   "Lng": 101.69948
 },
 {
   "Category": "ATM",
   "Name": "Bank Kerjasama Rakyat Malaysia Bhd.",
   "Full_Address": "Presint 1, 62000 Putrajaya",
   "Street_Address": "",
   "City": "Presint 1",
   "State": "62000",
   "Zip": "Putrajaya",
   "Lat": 2.9388594,
   "Lng": 101.7042014
 },
 {
   "Category": "ATM",
   "Name": "Maybank",
   "Full_Address": "Alamanda Shopping Centre, Lower Ground & Ground Floor, Persiaran Alamanda, Parcel Z, Precint 1, 62000 Putrajaya",
   "Street_Address": "Alamanda Shopping Centre,  Lower Ground & Ground Floor",
   "City": "Precint 1",
   "State": "62000",
   "Zip": "Putrajaya",
   "Lat": 2.93935,
   "Lng": 101.71094
 },
 {
   "Category": "ATM",
   "Name": "Maybank @ Negeri Sembilan",
   "Full_Address": "D'mart Bandar Baru Serting, Felda Serting, Negeri Sembilan, Malaysia, 72120",
   "Street_Address": "D'mart Bandar Baru Serting,  Felda Serting",
   "City": "Malaysia",
   "State": "72120",
   "Zip": "0",
   "Lat": 2.97047,
   "Lng": 102.449455
 },
 {
   "Category": "ATM",
   "Name": "Maybank",
   "Full_Address": "Star Cruises Terminal & Jetty, Pulau Indah, 42000 Pelabuhan Klang, Klang, Selangor",
   "Street_Address": "Star Cruises Terminal & Jetty,  Pulau Indah",
   "City": "Klang",
   "State": "Selangor",
   "Zip": "r",
   "Lat": 2.98471,
   "Lng": 101.33666
 },
 {
   "Category": "ATM",
   "Name": "CIMB",
   "Full_Address": "First Floor, F59, Aeon Bukit Tinggi Shopping Centre, No.1, Persiaran Batu Nilam 1/KS6, Bandar Bukit Tinggi 2, 41200 Klang, Selangor, 41200",
   "Street_Address": "First Floor,  F59",
   "City": "Selangor",
   "State": "41200",
   "Zip": "0",
   "Lat": 2.99415,
   "Lng": 101.4446
 },
 {
   "Category": "ATM",
   "Name": "CIMB ATM",
   "Full_Address": "Desa Keranji, 26810 Muadzam Shah, Pahang",
   "Street_Address": "Desa Keranji",
   "City": "26810 Muadzam Shah",
   "State": "Pahang",
   "Zip": "g",
   "Lat": 3.0785505,
   "Lng": 103.074223
 },
 {
   "Category": "ATM",
   "Name": "UOB Jalan Othman",
   "Full_Address": "39, Jalan Othman, Pjs 3, 46000 Petaling Jaya, Selangor",
   "Street_Address": "39,  Jalan Othman",
   "City": "46000 Petaling Jaya",
   "State": "Selangor",
   "Zip": "r",
   "Lat": 3.0871064,
   "Lng": 101.6480899
 },
 {
   "Category": "ATM",
   "Name": "ATM Giant Taman Permata",
   "Full_Address": "13793, Cangkat Permata, Taman Permata, 53300 Kuala Lumpur, Selangor",
   "Street_Address": "13793,  Cangkat Permata",
   "City": "53300 Kuala Lumpur",
   "State": "Selangor",
   "Zip": "r",
   "Lat": 3.207477,
   "Lng": 101.7514708
 },
 {
   "Category": "ATM",
   "Name": "CIMB Bank Berhad - ATM",
   "Full_Address": "No. 2, Jalan SG 1/2, Taman Sri Gombak, 68100 Batu Caves, Selangor",
   "Street_Address": "No. 2,  Jalan SG 1/2",
   "City": "68100 Batu Caves",
   "State": "Selangor",
   "Zip": "r",
   "Lat": 3.2364873,
   "Lng": 101.6991674
 },
 {
   "Category": "ATM",
   "Name": "Bank Rakyat ATM",
   "Full_Address": "No. 7 & 9, Jalan Sudirman 2, Bandar Sri Semantan, 28000 Temerloh, Pahang",
   "Street_Address": "No. 7 & 9,  Jalan Sudirman 2",
   "City": "28000 Temerloh",
   "State": "Pahang",
   "Zip": "g",
   "Lat": 3.449947,
   "Lng": 102.415502
 },
 {
   "Category": "ATM",
   "Name": "Maybank",
   "Full_Address": "Hospital Temerloh, Jalan Maran, Pahang, 28000 Temerloh",
   "Street_Address": "Hospital Temerloh,  Jalan Maran",
   "City": "Pahang",
   "State": "28000",
   "Zip": "Temerloh",
   "Lat": 3.453219,
   "Lng": 102.4514456
 },
 {
   "Category": "ATM",
   "Name": "Hong Leong Islamic Bank @ Bentong",
   "Full_Address": "1, Bentong Heights, 28700, Bentong, Pahang, 28700",
   "Street_Address": "1,  Bentong Heights",
   "City": "Pahang",
   "State": "28700",
   "Zip": "0",
   "Lat": 3.5223493,
   "Lng": 101.9107672
 },
 {
   "Category": "ATM",
   "Name": "AmBank (M) Berhad @ Bentong",
   "Full_Address": "105, Jalan Loke Yew, 28700, Bentong, Pahang, 28700",
   "Street_Address": "105,  Jalan Loke Yew",
   "City": "Pahang",
   "State": "28700",
   "Zip": "0",
   "Lat": 3.524208,
   "Lng": 101.908352
 },
 {
   "Category": "ATM",
   "Name": "Maybank",
   "Full_Address": "26600 Pekan, Pahang",
   "Street_Address": "",
   "City": "26600 Pekan",
   "State": "Pahang",
   "Zip": "g",
   "Lat": 3.5387668,
   "Lng": 103.4273224
 },
 {
   "Category": "ATM",
   "Name": "Atm Maybank Felda Mempaga",
   "Full_Address": "Mempaga 1, 28600 Bentong, Pahang",
   "Street_Address": "Mempaga 1",
   "City": "28600 Bentong",
   "State": "Pahang",
   "Zip": "g",
   "Lat": 3.5393797,
   "Lng": 101.9694919
 },
 {
   "Category": "ATM",
   "Name": "Bank Islam Malaysia Berhad",
   "Full_Address": "Majlis Daerah Hulu Selangor, Jalan Bukit Kerajaan, Selangor, 44000 Kuala Kubu Bharu",
   "Street_Address": "Majlis Daerah Hulu Selangor,  Jalan Bukit Kerajaan",
   "City": "Selangor",
   "State": "44000",
   "Zip": "Kuala Kubu Bharu",
   "Lat": 3.5602458,
   "Lng": 101.658317
 },
 {
   "Category": "ATM",
   "Name": "CIMB Bank Berhad - ATM",
   "Full_Address": "Bangunan LKNP, No. 47, Jalan Pasar, 26500, Maran, Pahang, Malaysia, 26500 Maran",
   "Street_Address": "Bangunan LKNP,  No. 47",
   "City": "Malaysia",
   "State": "26500",
   "Zip": "Maran",
   "Lat": 3.5835322,
   "Lng": 102.7789922
 },
 {
   "Category": "ATM",
   "Name": "Bank Kerjasama Rakyat Malaysia Berhad",
   "Full_Address": "Koperasi Pembangunan Daerah Gotong Royong Maran Berhad, Bangunan Wisma Pemuda UMNO, No. 2, Jalan Perpustakaan, Pahang, 26500 Maran",
   "Street_Address": "Koperasi Pembangunan Daerah Gotong Royong Maran Berhad,  Bangunan Wisma Pemuda UMNO",
   "City": "Pahang",
   "State": "26500",
   "Zip": "Maran",
   "Lat": 3.584128,
   "Lng": 102.783225
 },
 {
   "Category": "ATM",
   "Name": "ATM Maybank",
   "Full_Address": "Felda Dahlia Jengka 3, 26440 Bandar Tun Razak, Pahang",
   "Street_Address": "Felda Dahlia Jengka 3",
   "City": "26440 Bandar Tun Razak",
   "State": "Pahang",
   "Zip": "g",
   "Lat": 3.6832727,
   "Lng": 102.6086618
 },
 {
   "Category": "ATM",
   "Name": "Balai Polis Gedangsa",
   "Full_Address": "Unnamed Road, 45500, Gedangsa, Kuala Kubu Bharu, Selangor",
   "Street_Address": "Unnamed Road,  45500",
   "City": "Kuala Kubu Bharu",
   "State": "Selangor",
   "Zip": "r",
   "Lat": 3.740361,
   "Lng": 101.384154
 },
 {
   "Category": "ATM",
   "Name": "AmBank (M) Berhad @ Raub",
   "Full_Address": "5, Bandar Raub Perdana, 27600, Raub, Pahang, 27600",
   "Street_Address": "5,  Bandar Raub Perdana",
   "City": "Pahang",
   "State": "27600",
   "Zip": "0",
   "Lat": 3.7594256,
   "Lng": 101.8774096
 },
 {
   "Category": "ATM",
   "Name": "CIMB Bank Berhad - ATM",
   "Full_Address": "No. 22A, Jalan Menteri, Pekan Sabak Bernam, 45300 Sabak, Selangor",
   "Street_Address": "No. 22A,  Jalan Menteri",
   "City": "45300 Sabak",
   "State": "Selangor",
   "Zip": "r",
   "Lat": 3.7654831,
   "Lng": 100.9828005
 },
 {
   "Category": "ATM",
   "Name": "ATM CIMB (Shell)",
   "Full_Address": "3, Jalan Gambang, 25150 Kuantan, Pahang",
   "Street_Address": "3,  Jalan Gambang",
   "City": "25150 Kuantan",
   "State": "Pahang",
   "Zip": "g",
   "Lat": 3.7657546,
   "Lng": 103.2186314
 },
 {
   "Category": "ATM",
   "Name": "Maybank @ Bandar Jengka",
   "Full_Address": "6 & 7, Lorong Mutiara 7, Bandar Jengka, 26400 Bandar Tun Razak, Pahang",
   "Street_Address": "6 & 7,  Lorong Mutiara 7",
   "City": "26400 Bandar Tun Razak",
   "State": "Pahang",
   "Zip": "g",
   "Lat": 3.7703819,
   "Lng": 102.5478237
 },
 {
   "Category": "ATM",
   "Name": "Cimb",
   "Full_Address": "Kompleks Teruntum, G-01, Jalan Mahkota, 25000 Kuantan, Pahang",
   "Street_Address": "Kompleks Teruntum,  G-01",
   "City": "25000 Kuantan",
   "State": "Pahang",
   "Zip": "g",
   "Lat": 3.8028888,
   "Lng": 103.323937
 },
 {
   "Category": "ATM",
   "Name": "Cimb Atm",
   "Full_Address": "Bangunan BCB 21, Jalan Bank, 25000 Kuantan, Pahang",
   "Street_Address": "Bangunan BCB 21,  Jalan Bank",
   "City": "25000 Kuantan",
   "State": "Pahang",
   "Zip": "g",
   "Lat": 3.8068019,
   "Lng": 103.3281413
 },
 {
   "Category": "ATM",
   "Name": "UOB Kuantan",
   "Full_Address": "2, Jalan Besar, 25000 Kuantan, Pahang",
   "Street_Address": "2,  Jalan Besar",
   "City": "25000 Kuantan",
   "State": "Pahang",
   "Zip": "g",
   "Lat": 3.8071511,
   "Lng": 103.3295397
 },
 {
   "Category": "ATM",
   "Name": "Maybank",
   "Full_Address": "Petronas, 27600 Raub, Pahang",
   "Street_Address": "Petronas",
   "City": "27600 Raub",
   "State": "Pahang",
   "Zip": "g",
   "Lat": 3.8076085,
   "Lng": 101.8473414
 },
 {
   "Category": "ATM",
   "Name": "Maybank",
   "Full_Address": "Petronas Raub, 9011, Jalan Cheroh - Batu Malim, 27600 Raub District, Pahang",
   "Street_Address": "Petronas Raub,  9011",
   "City": "27600 Raub District",
   "State": "Pahang",
   "Zip": "g",
   "Lat": 3.8076195,
   "Lng": 101.8472934
 },
 {
   "Category": "ATM",
   "Name": "Maybank ATM",
   "Full_Address": "27070 Jerantut, Pahang",
   "Street_Address": "",
   "City": "27070 Jerantut",
   "State": "Pahang",
   "Zip": "g",
   "Lat": 3.885304,
   "Lng": 102.528653
 },
 {
   "Category": "ATM",
   "Name": "AmBank Jerantut",
   "Full_Address": "Lot K-1, Jalan Dewangsa, Jerantut New Town, 27000, Jerantut, Pahang",
   "Street_Address": "Lot K-1,  Jalan Dewangsa",
   "City": "Jerantut",
   "State": "Pahang",
   "Zip": "g",
   "Lat": 3.93778,
   "Lng": 102.361549
 },
 {
   "Category": "ATM",
   "Name": "HSBC",
   "Full_Address": "2a, Jalan Mahkamah, Pekan Teluk Intan, 36000 Teluk Intan, Negeri Perak",
   "Street_Address": "2a,  Jalan Mahkamah",
   "City": "36000 Teluk Intan",
   "State": "Negeri",
   "Zip": "Perak",
   "Lat": 4.0231503,
   "Lng": 101.0192519
 },
 {
   "Category": "ATM",
   "Name": "Maybank ATM",
   "Full_Address": "Petronas, No. Lot 1207, Jalan Pekeliling, Simpang 3, 27200 Kuala Lipis, Pahang",
   "Street_Address": "Petronas,  No. Lot 1207",
   "City": "27200 Kuala Lipis",
   "State": "Pahang",
   "Zip": "g",
   "Lat": 4.1723096,
   "Lng": 102.042805
 },
 {
   "Category": "ATM",
   "Name": "Bank Kerjasama Rakyat Malaysia Berhad",
   "Full_Address": "No. Lot 2891, Jalan BBKL 2/3/1, Bandar Baru Kuala Lipis, Pahang, 27200 Kuala Lipis",
   "Street_Address": "No. Lot 2891,  Jalan BBKL 2/3/1",
   "City": "Pahang",
   "State": "27200",
   "Zip": "Kuala Lipis",
   "Lat": 4.1873445,
   "Lng": 102.0606899
 },
 {
   "Category": "ATM",
   "Name": "RHB",
   "Full_Address": "Jalan Sitiawan, 32200 Lumut, Perak, Malaysia, 32200",
   "Street_Address": "Jalan Sitiawan,  32200 Lumut",
   "City": "Malaysia",
   "State": "32200",
   "Zip": "0",
   "Lat": 4.2202641,
   "Lng": 100.6715067
 },
 {
   "Category": "ATM",
   "Name": "Cimb Bank Kemaman",
   "Full_Address": "712, Jalan Sulaiman, Taman Cukai Utama, 24000 Chukai, Terengganu",
   "Street_Address": "712,  Jalan Sulaiman",
   "City": "24000 Chukai",
   "State": "Terengganu",
   "Zip": "u",
   "Lat": 4.2214489,
   "Lng": 103.4198236
 },
 {
   "Category": "ATM",
   "Name": "AmBank",
   "Full_Address": "40, Jalan Idris, Kampung Masjid, 31900 Kampar, Negeri Perak",
   "Street_Address": "40,  Jalan Idris",
   "City": "31900 Kampar",
   "State": "Negeri",
   "Zip": "Perak",
   "Lat": 4.311567,
   "Lng": 101.152514
 },
 {
   "Category": "ATM",
   "Name": "ATM - RHB Bank",
   "Full_Address": "Miri Airport, Jalan Air Port, Sarawak, 98008 Miri",
   "Street_Address": "Miri Airport,  Jalan Air Port",
   "City": "Sarawak",
   "State": "98008",
   "Zip": "Miri",
   "Lat": 4.3244353,
   "Lng": 113.9832458
 },
 {
   "Category": "ATM",
   "Name": "Bank Simpanan Nasional",
   "Full_Address": "Tesco Kampar, Jalan Perdana, 31900 Kampar, Perak",
   "Street_Address": "Tesco Kampar,  Jalan Perdana",
   "City": "31900 Kampar",
   "State": "Perak",
   "Zip": "k",
   "Lat": 4.33498,
   "Lng": 101.15389
 },
 {
   "Category": "ATM",
   "Name": "CIMB Bank",
   "Full_Address": "Tesco Station 18, 1, Medan Stesen 19/9, Station 18, 31650 Ipoh, Negeri Perak",
   "Street_Address": "Tesco Station 18,  1",
   "City": "31650 Ipoh",
   "State": "Negeri",
   "Zip": "Perak",
   "Lat": 4.5444499,
   "Lng": 101.068552
 },
 {
   "Category": "ATM",
   "Name": "CIMB Bank ATM",
   "Full_Address": "AEON Station 18, Susuran Stesen 18, Taman Pengkalan Jaya, 31650 Ipoh, Negeri Perak",
   "Street_Address": "AEON Station 18,  Susuran Stesen 18",
   "City": "31650 Ipoh",
   "State": "Negeri",
   "Zip": "Perak",
   "Lat": 4.544649,
   "Lng": 101.07081
 },
 {
   "Category": "ATM",
   "Name": "CIMB Bank ATM",
   "Full_Address": "288, Jalan Raja Dr. Nazrin Shah, Taman Cemerlang Rapat, 31350 Ipoh, Negeri Perak",
   "Street_Address": "288,  Jalan Raja Dr. Nazrin Shah",
   "City": "31350 Ipoh",
   "State": "Negeri",
   "Zip": "Perak",
   "Lat": 4.5699299,
   "Lng": 101.11362
 },
 {
   "Category": "ATM",
   "Name": "CIMB Bank ATM",
   "Full_Address": "Greentown Business Center, 46, Persiaran Greentown 2, Pusat Perdagangan Greentown, 30450 Ipoh, Negeri Perak",
   "Street_Address": "Greentown Business Center,  46",
   "City": "30450 Ipoh",
   "State": "Negeri",
   "Zip": "Perak",
   "Lat": 4.5987159,
   "Lng": 101.0952169
 },
 {
   "Category": "ATM",
   "Name": "UOB Ipoh",
   "Full_Address": "2, Jalan Dato Seri Ahmad Said, Kampung Jawa, 30450 Ipoh, Negeri Perak",
   "Street_Address": "2,  Jalan Dato Seri Ahmad Said",
   "City": "30450 Ipoh",
   "State": "Negeri",
   "Zip": "Perak",
   "Lat": 4.6005152,
   "Lng": 101.0864955
 },
 {
   "Category": "ATM",
   "Name": "OCBC Bank (M) Berhad - ATM",
   "Full_Address": "No. 24, 30, Jalan Berek, Guntong, 34000 Taiping, Perak",
   "Street_Address": "No. 24,  30",
   "City": "34000 Taiping",
   "State": "Perak",
   "Zip": "k",
   "Lat": 4.6028468,
   "Lng": 101.0659415
 },
 {
   "Category": "ATM",
   "Name": "RHB Bank",
   "Full_Address": "Jusco Kinta City, No. 2, Jalan The Lean Swee, Off Jln Sultan Azlan Shah Utara, Perak, 31400 Ipoh",
   "Street_Address": "Jusco Kinta City,  No. 2",
   "City": "Perak",
   "State": "31400",
   "Zip": "Ipoh",
   "Lat": 4.6133205,
   "Lng": 101.1185191
 },
 {
   "Category": "ATM",
   "Name": "Maybank",
   "Full_Address": "Petronas Durian Mas Dungun, Lot PT 114, Jalan Jabor, Bandar Al-Muktafi Billah Shah, 23000 Kuala Dungun, Terengganu",
   "Street_Address": "Petronas Durian Mas Dungun,  Lot PT 114",
   "City": "23000 Kuala Dungun",
   "State": "Terengganu",
   "Zip": "u",
   "Lat": 4.6218175,
   "Lng": 103.214811
 },
 {
   "Category": "ATM",
   "Name": "CIMB ATM",
   "Full_Address": "174, Jalan Kuala Kangsar, 30010 Ipoh, Negeri Perak",
   "Street_Address": "174,  Jalan Kuala Kangsar",
   "City": "30010 Ipoh",
   "State": "Negeri",
   "Zip": "Perak",
   "Lat": 4.631536,
   "Lng": 101.0863789
 },
 {
   "Category": "ATM",
   "Name": "ATM Maybank",
   "Full_Address": "Jalan Kuala Kangsar, 30010 Ipoh, Negeri Perak",
   "Street_Address": "Jalan Kuala Kangsar",
   "City": "30010 Ipoh",
   "State": "Negeri",
   "Zip": "Perak",
   "Lat": 4.633121,
   "Lng": 101.0881839
 },
 {
   "Category": "ATM",
   "Name": "Maybank",
   "Full_Address": "Kampung Menora, 33000 Kuala Kangsar, Perak",
   "Street_Address": "Kampung Menora",
   "City": "33000 Kuala Kangsar",
   "State": "Perak",
   "Zip": "k",
   "Lat": 4.7130682,
   "Lng": 100.9448607
 },
 {
   "Category": "ATM",
   "Name": "Maybank",
   "Full_Address": "577, Jalan Kemaman - Dungun, 23000 Kuala Dungun, Terengganu",
   "Street_Address": "577,  Jalan Kemaman - Dungun",
   "City": "23000 Kuala Dungun",
   "State": "Terengganu",
   "Zip": "u",
   "Lat": 4.7178547,
   "Lng": 103.4208304
 },
 {
   "Category": "ATM",
   "Name": "ATM BANK RAKYAT",
   "Full_Address": "USAS, BKT CHANDAN, 33000 K, 33000 Kuala Kangsar, Perak",
   "Street_Address": "USAS,  BKT CHANDAN",
   "City": "33000 Kuala Kangsar",
   "State": "Perak",
   "Zip": "k",
   "Lat": 4.7518817,
   "Lng": 100.946439
 },
 {
   "Category": "ATM",
   "Name": "CIMB Bank Berhad - ATM",
   "Full_Address": "Bangunan UMNO, No. 3679, Jalan Besar, 23000, Dungun, Terengganu, Malaysia, 23000 Kuala Dungun",
   "Street_Address": "Bangunan UMNO,  No. 3679",
   "City": "Malaysia",
   "State": "23000",
   "Zip": "Kuala Dungun",
   "Lat": 4.7536599,
   "Lng": 103.4155669
 },
 {
   "Category": "ATM",
   "Name": "ATM Bank Kerjasama Rakyat Malaysia Berhad",
   "Full_Address": "No. Lot PT 7841 & PT 7842, Jalan Persiaran Raya, Taman Mesra, Kelantan, 18300 Gua Musang",
   "Street_Address": "No. Lot PT 7841 & PT 7842,  Jalan Persiaran Raya",
   "City": "Kelantan",
   "State": "18300",
   "Zip": "Gua Musang",
   "Lat": 4.8611802,
   "Lng": 101.9634086
 },
 {
   "Category": "ATM",
   "Name": "CIMB Bank Gua Musang",
   "Full_Address": "Jln Persiaran Raya, Taman Wangsa Mewangi, 18300 Gua Musang, Kelantan",
   "Street_Address": "Jln Persiaran Raya,  Taman Wangsa Mewangi",
   "City": "18300 Gua Musang",
   "State": "Kelantan",
   "Zip": "n",
   "Lat": 4.8718274,
   "Lng": 101.9632602
 },
 {
   "Category": "ATM",
   "Name": "Maybank",
   "Full_Address": "Petronas Jalan Silam Lahad Datu, Lot CL, 115379989, Jalan Silam, Batu 3, Sabah, Lahad Datu",
   "Street_Address": "Petronas Jalan Silam Lahad Datu,  Lot CL",
   "City": "Sabah",
   "State": "Lahad",
   "Zip": "Datu",
   "Lat": 5.0228782,
   "Lng": 118.2894301
 },
 {
   "Category": "ATM",
   "Name": "Maybank - ATM",
   "Full_Address": "Lot No. 4 (A&B), Block C, Pusat Komersial Felda Cenderawasih, Felda Sahabat, 91100 Lahad Datu, Sabah",
   "Street_Address": "Lot No. 4 (A&B),  Block C",
   "City": "91100 Lahad Datu",
   "State": "Sabah",
   "Zip": "h",
   "Lat": 5.0273942,
   "Lng": 118.3270237
 },
 {
   "Category": "ATM",
   "Name": "Maybank",
   "Full_Address": "Petronas Jalan Segama Lahad Datu, No. Box 91007, Jalan Segama, Batu 7, Sabah, 91100 Lahad Datu",
   "Street_Address": "Petronas Jalan Segama Lahad Datu,  No. Box 91007",
   "City": "Sabah",
   "State": "91100",
   "Zip": "Lahad Datu",
   "Lat": 5.0342771,
   "Lng": 118.3139538
 },
 {
   "Category": "ATM",
   "Name": "Bank Kerjasama Rakyat Malaysia Berhad",
   "Full_Address": "Airport Plaza, Fajar Centre, No. Lot 27 & 28 Blok D, Jalan Segama, Sabah, 91100 Lahad Datu",
   "Street_Address": "Airport Plaza,  Fajar Centre",
   "City": "Sabah",
   "State": "91100",
   "Zip": "Lahad Datu",
   "Lat": 5.052886,
   "Lng": 118.296698
 },
 {
   "Category": "ATM",
   "Name": "Maybank",
   "Full_Address": "3, Main Road, Lenggong, Perak, Malaysia, 33400",
   "Street_Address": "3,  Main Road",
   "City": "Malaysia",
   "State": "33400",
   "Zip": "0",
   "Lat": 5.128477,
   "Lng": 100.992875
 },
 {
   "Category": "ATM",
   "Name": "Affin Bank Berhad",
   "Full_Address": "Tower Financial Park Labuan, No. Unit 3 (J), Jalan Merdeka, Federal Territory, Labuan, 87000 Wilayah Persekutuan",
   "Street_Address": "Tower Financial Park Labuan,  No. Unit 3 (J)",
   "City": "Labuan",
   "State": "87000",
   "Zip": "Wilayah Persekutuan",
   "Lat": 5.276494,
   "Lng": 115.241893
 },
 {
   "Category": "ATM",
   "Name": "CIMB ATM @ Petronas",
   "Full_Address": "1482, Jalan Kulim, Kampung Pisang, 14000 Bukit Mertajam, Pulau Pinang",
   "Street_Address": "1482,  Jalan Kulim",
   "City": "14000 Bukit Mertajam",
   "State": "Pulau",
   "Zip": "Pinang",
   "Lat": 5.3447819,
   "Lng": 100.4917639
 },
 {
   "Category": "ATM",
   "Name": "Maybank",
   "Full_Address": "Petronas Kulim, No. Lot 527, Jalan Rimba Emas, Taman Bersatu, Kedah, 09000 Kulim",
   "Street_Address": "Petronas Kulim,  No. Lot 527",
   "City": "Kedah",
   "State": "9000",
   "Zip": "Kulim",
   "Lat": 5.3579657,
   "Lng": 100.5424762
 },
 {
   "Category": "ATM",
   "Name": "ATM RHB",
   "Full_Address": "Jln Lembah Impian 5, 09000 Kulim, Kedah",
   "Street_Address": "Jln Lembah Impian 5",
   "City": "09000 Kulim",
   "State": "Kedah",
   "Zip": "h",
   "Lat": 5.362788,
   "Lng": 100.527142
 },
 {
   "Category": "ATM",
   "Name": "Cimb",
   "Full_Address": "Kampung Teluk Ketapang, 21300 Kuala Terengganu, Terengganu",
   "Street_Address": "Kampung Teluk Ketapang",
   "City": "21300 Kuala Terengganu",
   "State": "Terengganu",
   "Zip": "u",
   "Lat": 5.370611,
   "Lng": 103.111565
 },
 {
   "Category": "ATM",
   "Name": "Hong Leong Bank ATMs",
   "Full_Address": "62 & 63, Jalan Bayu Satu, Taman Tunku Putra, 09000 Kulim, Kedah",
   "Street_Address": "62 & 63,  Jalan Bayu Satu",
   "City": "09000 Kulim",
   "State": "Kedah",
   "Zip": "h",
   "Lat": 5.3719649,
   "Lng": 100.5558289
 },
 {
   "Category": "ATM",
   "Name": "CIMB Bank Berhad - ATM",
   "Full_Address": "Wisma Koperasi, No. 254A, Jalan Tuanku Putra, 09000, Kulim, Kedah, Malaysia, 09000 Kulim",
   "Street_Address": "Wisma Koperasi,  No. 254A",
   "City": "Malaysia",
   "State": "9000",
   "Zip": "Kulim",
   "Lat": 5.3721377,
   "Lng": 100.5554007
 },
 {
   "Category": "ATM",
   "Name": "RHB",
   "Full_Address": "43, Lorong Semarak 1, Taman Semarak, 09000 Kulim, Kedah",
   "Street_Address": "43,  Lorong Semarak 1",
   "City": "09000 Kulim",
   "State": "Kedah",
   "Zip": "h",
   "Lat": 5.3842265,
   "Lng": 100.5459224
 },
 {
   "Category": "ATM",
   "Name": "Hong Leong Bank Berhad - ATM",
   "Full_Address": "No.5, Ground & First Floors, Jalan KLC 1, Kulim Landmark Central, 09000, Kulim, Kedah, Malaysia, 09000 Kulim",
   "Street_Address": "No.5,  Ground & First Floors",
   "City": "Malaysia",
   "State": "9000",
   "Zip": "Kulim",
   "Lat": 5.3857333,
   "Lng": 100.5462019
 },
 {
   "Category": "ATM",
   "Name": "CIMB Bank ATM",
   "Full_Address": "253, Jalan Kilang Lama, Taman Cenderawasih, 09000 Kulim, Kedah",
   "Street_Address": "253,  Jalan Kilang Lama",
   "City": "09000 Kulim",
   "State": "Kedah",
   "Zip": "h",
   "Lat": 5.3857539,
   "Lng": 100.5594929
 },
 {
   "Category": "ATM",
   "Name": "ATM CIMB Bank",
   "Full_Address": "43, Lebuh Pantai, George Town, 10300 George Town, Pulau Pinang",
   "Street_Address": "43,  Lebuh Pantai",
   "City": "10300 George Town",
   "State": "Pulau",
   "Zip": "Pinang",
   "Lat": 5.416429,
   "Lng": 100.3412904
 },
 {
   "Category": "ATM",
   "Name": "ATM Maybank",
   "Full_Address": "Suite B2, KHTP Business Centre, Kulim Hi-tech Park, 09000 Kulim, Kedah",
   "Street_Address": "Suite B2,  KHTP Business Centre",
   "City": "09000 Kulim",
   "State": "Kedah",
   "Zip": "h",
   "Lat": 5.423019,
   "Lng": 100.5839479
 },
 {
   "Category": "ATM",
   "Name": "Atm Bank Rakyat",
   "Full_Address": "mrsm, 33100 Pengkalan Hulu, Perak",
   "Street_Address": "mrsm",
   "City": "33100 Pengkalan Hulu",
   "State": "Perak",
   "Zip": "k",
   "Lat": 5.7176707,
   "Lng": 100.9909084
 },
 {
   "Category": "ATM",
   "Name": "ATM Maybank",
   "Full_Address": "Pekan Machang, 18500 Machang, Kelantan",
   "Street_Address": "Pekan Machang",
   "City": "18500 Machang",
   "State": "Kelantan",
   "Zip": "n",
   "Lat": 5.763398,
   "Lng": 102.221359
 },
 {
   "Category": "ATM",
   "Name": "Maybank",
   "Full_Address": "Lot 51, Sedco Industrial Estate, Papar Highway, Taman Pantai Lok Kawi, 88812 Papar, Sabah",
   "Street_Address": "Lot 51,  Sedco Industrial Estate",
   "City": "88812 Papar",
   "State": "Sabah",
   "Zip": "h",
   "Lat": 5.83861,
   "Lng": 116.043769
 },
 {
   "Category": "ATM",
   "Name": "Maybank ATM",
   "Full_Address": "Putatan Court, Lot 10, Jalan Putatan, Putatan, 88200 Kota Kinabalu, Sabah",
   "Street_Address": "Putatan Court,  Lot 10",
   "City": "88200 Kota Kinabalu",
   "State": "Sabah",
   "Zip": "h",
   "Lat": 5.892125,
   "Lng": 116.047294
 },
 {
   "Category": "ATM",
   "Name": "Maybank",
   "Full_Address": "Sandakan Airport, No. Box 1719, Jalan Airport, Sabah, 90719 Sandakan",
   "Street_Address": "Sandakan Airport,  No. Box 1719",
   "City": "Sabah",
   "State": "90719",
   "Zip": "Sandakan",
   "Lat": 5.8969425,
   "Lng": 118.0617991
 },
 {
   "Category": "ATM",
   "Name": "ATM CIMB Bank",
   "Full_Address": "Giant, Jalan Tuaran, 88400 Kota Kinabalu, Sabah",
   "Street_Address": "Giant,  Jalan Tuaran",
   "City": "88400 Kota Kinabalu",
   "State": "Sabah",
   "Zip": "h",
   "Lat": 5.990431,
   "Lng": 116.124735
 },
 {
   "Category": "ATM",
   "Name": "Maybank",
   "Full_Address": "Petronas Pendang, Jalan Pendang-Tanah Merah, 06700 Pendang, Kedah",
   "Street_Address": "Petronas Pendang,  Jalan Pendang-Tanah Merah",
   "City": "06700 Pendang",
   "State": "Kedah",
   "Zip": "h",
   "Lat": 5.992797,
   "Lng": 100.4767279
 },
 {
   "Category": "ATM",
   "Name": "RHB Bank",
   "Full_Address": "Jalan Hamzah, Bandar Kota Bharu, 15050 Kota Bharu, Kelantan",
   "Street_Address": "Jalan Hamzah,  Bandar Kota Bharu",
   "City": "15050 Kota Bharu",
   "State": "Kelantan",
   "Zip": "n",
   "Lat": 6.116729,
   "Lng": 102.24018
 },
 {
   "Category": "ATM",
   "Name": "RHB Bank",
   "Full_Address": "Kota Bharu Mall, No. 102, Jalan Hamzah, Kelantan, 15050 Kota Bharu",
   "Street_Address": "Kota Bharu Mall,  No. 102",
   "City": "Kelantan",
   "State": "15050",
   "Zip": "Kota Bharu",
   "Lat": 6.1179583,
   "Lng": 102.2408445
 },
 {
   "Category": "ATM",
   "Name": "UOB Kota Bharu",
   "Full_Address": "724, D1, Bandar Kota Bharu, 15000 Kota Bharu, Kelantan",
   "Street_Address": "724,  D1",
   "City": "15000 Kota Bharu",
   "State": "Kelantan",
   "Zip": "n",
   "Lat": 6.1284731,
   "Lng": 102.235954
 },
 {
   "Category": "ATM",
   "Name": "ATM BSN Hospital Sultanah Bahiyah",
   "Full_Address": "256, Kampung Telaga Bata, 06500 Alor Setar, Kedah",
   "Street_Address": "256,  Kampung Telaga Bata",
   "City": "06500 Alor Setar",
   "State": "Kedah",
   "Zip": "h",
   "Lat": 6.1487942,
   "Lng": 100.4067078
 },
 {
   "Category": "ATM",
   "Name": "ATM Bank Rakyat @ Ar-Rahnu",
   "Full_Address": "175, Taman Bandar Baru, 06400 Pokok Sena, Kedah",
   "Street_Address": "175,  Taman Bandar Baru",
   "City": "06400 Pokok Sena",
   "State": "Kedah",
   "Zip": "h",
   "Lat": 6.168337,
   "Lng": 100.5155709
 },
 {
   "Category": "ATM",
   "Name": "ATM Maybank Bank Kota Bharu Airport",
   "Full_Address": "Kota Bharu Airport, 8 Brigade Army Camp, 16100 Kota Bharu, Kelantan",
   "Street_Address": "Kota Bharu Airport,  8 Brigade Army Camp",
   "City": "16100 Kota Bharu",
   "State": "Kelantan",
   "Zip": "n",
   "Lat": 6.169902,
   "Lng": 102.2928224
 },
 {
   "Category": "ATM",
   "Name": "UOB Tuaran",
   "Full_Address": "9 & 10, Jalan Datuk Dusing, 89200 Tuaran, Sabah",
   "Street_Address": "9 & 10,  Jalan Datuk Dusing",
   "City": "89200 Tuaran",
   "State": "Sabah",
   "Zip": "h",
   "Lat": 6.1778392,
   "Lng": 116.2339132
 },
 {
   "Category": "ATM",
   "Name": "ATM - CIMB Bank @ Jitra",
   "Full_Address": "Jalan Jitra, Pekan Jitra, 06000 Jitra, Kedah",
   "Street_Address": "Jalan Jitra,  Pekan Jitra",
   "City": "06000 Jitra",
   "State": "Kedah",
   "Zip": "h",
   "Lat": 6.2636536,
   "Lng": 100.4193766
 },
 {
   "Category": "ATM",
   "Name": "ATM - Maybank @ Kuah Jetty",
   "Full_Address": "Kuah, 07000 Langkawi, Kedah",
   "Street_Address": "Kuah",
   "City": "07000 Langkawi",
   "State": "Kedah",
   "Zip": "h",
   "Lat": 6.3062286,
   "Lng": 99.8519431
 },
 {
   "Category": "ATM",
   "Name": "ATM - Cimb Bank Jetty Point Complex Langkawi",
   "Full_Address": "Kuah, 07000 Langkawi, Kedah",
   "Street_Address": "Kuah",
   "City": "07000 Langkawi",
   "State": "Kedah",
   "Zip": "h",
   "Lat": 6.306341,
   "Lng": 99.8518939
 },
 {
   "Category": "ATM",
   "Name": "ATM - Maybank @ Kodiang",
   "Full_Address": "629, Jalan Besar, Kampung Tokong, 06100 Kodiang, Kedah",
   "Street_Address": "629,  Jalan Besar",
   "City": "06100 Kodiang",
   "State": "Kedah",
   "Zip": "h",
   "Lat": 6.3939502,
   "Lng": 100.3043118
 },
 {
   "Category": "ATM",
   "Name": "Bank Rakyat",
   "Full_Address": "Hospital Pitas, Jalan Hospital, 89100 Kota Marudu, Sabah",
   "Street_Address": "Hospital Pitas,  Jalan Hospital",
   "City": "89100 Kota Marudu",
   "State": "Sabah",
   "Zip": "h",
   "Lat": 6.7116211,
   "Lng": 117.0290232
 },
 {
   "Category": "ATM",
   "Name": "ATM Bank Rakyat",
   "Full_Address": "Lobi Hospital, 89050 Kudat, Sabah",
   "Street_Address": "Lobi Hospital",
   "City": "89050 Kudat",
   "State": "Sabah",
   "Zip": "h",
   "Lat": 6.9076839,
   "Lng": 116.8381308
 },
 {
   "Category": "ATV rental service",
   "Name": "Black Pearl Adventure (ATV)",
   "Full_Address": "Kampung Janda Baik, 28750 Bentong, Pahang",
   "Street_Address": "Kampung Janda Baik",
   "City": "28750 Bentong",
   "State": "Pahang",
   "Zip": "g",
   "Lat": 3.3325504,
   "Lng": 101.858215
 },
 {
   "Category": "ATV rental service",
   "Name": "zz atv park",
   "Full_Address": "Unnamed Road, Kampung Batu Kapur, 28400 Mentakab, Pahang",
   "Street_Address": "Unnamed Road,  Kampung Batu Kapur",
   "City": "28400 Mentakab",
   "State": "Pahang",
   "Zip": "g",
   "Lat": 3.5057597,
   "Lng": 102.3319162
 },
 {
   "Category": "ATV rental service",
   "Name": "ATV NOVA CAMERON",
   "Full_Address": "Unnamed Road, 39000 Brinchang, Pahang",
   "Street_Address": "Unnamed Road",
   "City": "39000 Brinchang",
   "State": "Pahang",
   "Zip": "g",
   "Lat": 4.5079851,
   "Lng": 101.4083429
 },
 {
   "Category": "ATV rental service",
   "Name": "Cameron Adventurous ATV & Safari",
   "Full_Address": "Kuala Terla, 39000 Tanah Rata, Pahang",
   "Street_Address": "Kuala Terla",
   "City": "39000 Tanah Rata",
   "State": "Pahang",
   "Zip": "g",
   "Lat": 4.5451913,
   "Lng": 101.4212301
 },
 {
   "Category": "ATV rental service",
   "Name": "Penang ATV Eco Tour Balik Pulau",
   "Full_Address": "298, Mukim I, Kampung Perlis, 11000 Balik Pulau, Penang",
   "Street_Address": "298,  Mukim I",
   "City": "11000 Balik Pulau",
   "State": "Penang",
   "Zip": "g",
   "Lat": 5.3196229,
   "Lng": 100.2047592
 },
 {
   "Category": "ATV rental service",
   "Name": "ATV EXTREME ZONE",
   "Full_Address": "Tel 04-9552063, Jalan Ulu Melaka, Kampung Bukit Hantu, 07000 Langkawi, Kedah",
   "Street_Address": "Tel 04-9552063,  Jalan Ulu Melaka",
   "City": "07000 Langkawi",
   "State": "Kedah",
   "Zip": "h",
   "Lat": 6.3631311,
   "Lng": 99.7806159
 },
 {
   "Category": "Abortion clinic",
   "Name": "Pusat Pakar Perbidanan Dan Klinik Wanita",
   "Full_Address": "56, Jalan Sutera, Taman Sentosa, 80150 Johor Bahru, Johor",
   "Street_Address": "56,  Jalan Sutera",
   "City": "80150 Johor Bahru",
   "State": "Johor",
   "Zip": "r",
   "Lat": 1.4947292,
   "Lng": 103.7825065
 },
 {
   "Category": "Accommodation",
   "Name": "Lubok Kasai Jungle Camp",
   "Full_Address": "Lubok Kasai, 95800 Lubok Antu, Sarawak",
   "Street_Address": "Lubok Kasai",
   "City": "95800 Lubok Antu",
   "State": "Sarawak",
   "Zip": "k",
   "Lat": 1.043355,
   "Lng": 111.8535959
 },
 {
   "Category": "Accommodation",
   "Name": "Kc Inn Serian",
   "Full_Address": "Bandar Serian, 94700 Serian, Sarawak",
   "Street_Address": "Bandar Serian",
   "City": "94700 Serian",
   "State": "Sarawak",
   "Zip": "k",
   "Lat": 1.169979,
   "Lng": 110.5657808
 },
 {
   "Category": "Accommodation",
   "Name": "Sri Aman Palm Oil Mill",
   "Full_Address": "Lot 1, Blok 2, Klauh Land District, Sungai Dor, 95000 Sri Aman, Sarawak",
   "Street_Address": "Lot 1,  Blok 2",
   "City": "95000 Sri Aman",
   "State": "Sarawak",
   "Zip": "k",
   "Lat": 1.1944306,
   "Lng": 111.4004736
 },
 {
   "Category": "Accommodation",
   "Name": "DAP Sri Aman Office",
   "Full_Address": "Jalan Sabu, Pekan Sri Aman, 95000 Sri Aman, Sarawak",
   "Street_Address": "Jalan Sabu,  Pekan Sri Aman",
   "City": "95000 Sri Aman",
   "State": "Sarawak",
   "Zip": "k",
   "Lat": 1.235078,
   "Lng": 111.464176
 },
 {
   "Category": "Accommodation",
   "Name": "Tapah Inn",
   "Full_Address": "Pekan Betong, 95700 Betong, Sarawak",
   "Street_Address": "Pekan Betong",
   "City": "95700 Betong",
   "State": "Sarawak",
   "Zip": "k",
   "Lat": 1.4105855,
   "Lng": 111.5289878
 },
 {
   "Category": "Accommodation",
   "Name": "Asia Inn",
   "Full_Address": "95700 Betong, Sarawak",
   "Street_Address": "",
   "City": "95700 Betong",
   "State": "Sarawak",
   "Zip": "k",
   "Lat": 1.4107542,
   "Lng": 111.5295967
 },
 {
   "Category": "Accommodation",
   "Name": "Majlis Daerah Betong",
   "Full_Address": "Bangunan Kubu Rentap, Graji Atas, Sarawak, 95700 Betong",
   "Street_Address": "Bangunan Kubu Rentap,  Graji Atas",
   "City": "Sarawak",
   "State": "95700",
   "Zip": "Betong",
   "Lat": 1.4140794,
   "Lng": 111.5281084
 },
 {
   "Category": "Accommodation",
   "Name": "Housing Complex RMAF Kuching",
   "Full_Address": "Jalan Kuching - Serian, 93250 Kuching, Sarawak",
   "Street_Address": "Jalan Kuching - Serian",
   "City": "93250 Kuching",
   "State": "Sarawak",
   "Zip": "k",
   "Lat": 1.4183109,
   "Lng": 110.3317673
 },
 {
   "Category": "Accommodation",
   "Name": "ROOM FOR RENT",
   "Full_Address": "Jalan Datuk Mohammad Musa, 94300 Kota Samarahan, Sarawak",
   "Street_Address": "Jalan Datuk Mohammad Musa",
   "City": "94300 Kota Samarahan",
   "State": "Sarawak",
   "Zip": "k",
   "Lat": 1.4584492,
   "Lng": 110.4330804
 },
 {
   "Category": "Accommodation",
   "Name": "Taman Uni Garden",
   "Full_Address": "7c, Lor Merdang Gayam 1B, 94300 Kota Samarahan, Sarawak",
   "Street_Address": "7c,  Lor Merdang Gayam 1B",
   "City": "94300 Kota Samarahan",
   "State": "Sarawak",
   "Zip": "k",
   "Lat": 1.4624839,
   "Lng": 110.4046862
 },
 {
   "Category": "Accommodation",
   "Name": "Armina Homestay",
   "Full_Address": "Jalan Mini Stadium, Kg. Ulu Pulai",
   "Street_Address": "",
   "City": "Jalan Mini Stadium",
   "State": "Kg.",
   "Zip": "Ulu Pulai",
   "Lat": 1.4800596,
   "Lng": 103.5728302
 },
 {
   "Category": "Accommodation",
   "Name": "Homestay Tawakkal",
   "Full_Address": "Jalan Delima, Pusat Perdagangan Pontian, 82000 Pontian, Johor",
   "Street_Address": "Jalan Delima,  Pusat Perdagangan Pontian",
   "City": "82000 Pontian",
   "State": "Johor",
   "Zip": "r",
   "Lat": 1.480212,
   "Lng": 103.387258
 },
 {
   "Category": "Accommodation",
   "Name": "Yes Kiosk Econsave Pontian Jaya",
   "Full_Address": "Skudai - Pontian Highway, Kampung Tengah, 82000 Pontian District, Johor",
   "Street_Address": "Skudai - Pontian Highway,  Kampung Tengah",
   "City": "82000 Pontian District",
   "State": "Johor",
   "Zip": "r",
   "Lat": 1.480375,
   "Lng": 103.3971747
 },
 {
   "Category": "Accommodation",
   "Name": "Tmn seri setanggi",
   "Full_Address": "Blok S, 0107, Jln Seri Setanggi 2, Taman Seri Setanggi, 80250 Johor Bahru, Johor",
   "Street_Address": "Blok S,  0107",
   "City": "80250 Johor Bahru",
   "State": "Johor",
   "Zip": "r",
   "Lat": 1.5016874,
   "Lng": 103.7673826
 },
 {
   "Category": "Accommodation",
   "Name": "Bukit Saban Resort",
   "Full_Address": "Jalan Ulu Paku, 95600 Betong, Sarawak",
   "Street_Address": "Jalan Ulu Paku",
   "City": "95600 Betong",
   "State": "Sarawak",
   "Zip": "k",
   "Lat": 1.543539,
   "Lng": 111.534458
 },
 {
   "Category": "Accommodation",
   "Name": "Dewan Serbaguna Kampung Tupong",
   "Full_Address": "24, Jalan Merdeka, Kampung Malaysia Jaya, 93050 Kuching, Sarawak",
   "Street_Address": "24,  Jalan Merdeka",
   "City": "93050 Kuching",
   "State": "Sarawak",
   "Zip": "k",
   "Lat": 1.5720888,
   "Lng": 110.3321917
 },
 {
   "Category": "Accommodation",
   "Name": "Dewan Serbaguna Kampung Samariang Batu",
   "Full_Address": "Kampung Semariang Batu, 93050 Kuching, Sarawak",
   "Street_Address": "Kampung Semariang Batu",
   "City": "93050 Kuching",
   "State": "Sarawak",
   "Zip": "k",
   "Lat": 1.6030769,
   "Lng": 110.327343
 },
 {
   "Category": "Accommodation",
   "Name": "Chang Chun Inn",
   "Full_Address": "81400 Senai, Johor",
   "Street_Address": "",
   "City": "81400 Senai",
   "State": "Johor",
   "Zip": "r",
   "Lat": 1.606738,
   "Lng": 103.6357661
 },
 {
   "Category": "Accommodation",
   "Name": "Jetty Nelayan Muara Tebas",
   "Full_Address": "17, Jalan Kampung Muara Tebas, Sungai Buda Kecil, 93010 Kuching, Sarawak",
   "Street_Address": "17,  Jalan Kampung Muara Tebas",
   "City": "93010 Kuching",
   "State": "Sarawak",
   "Zip": "k",
   "Lat": 1.6456103,
   "Lng": 110.4836104
 },
 {
   "Category": "Accommodation",
   "Name": "Bilik sewa taman kota",
   "Full_Address": "Pekan Kota Tinggi, 81900 Kota Tinggi, Johor",
   "Street_Address": "Pekan Kota Tinggi",
   "City": "81900 Kota Tinggi",
   "State": "Johor",
   "Zip": "r",
   "Lat": 1.729375,
   "Lng": 103.899227
 },
 {
   "Category": "Accommodation",
   "Name": "The Village Sematan resort",
   "Full_Address": "Jalan Sg Kilong, 94100 Sematan, Sarawak",
   "Street_Address": "Jalan Sg Kilong",
   "City": "94100 Sematan",
   "State": "Sarawak",
   "Zip": "k",
   "Lat": 1.8154672,
   "Lng": 109.7756401
 },
 {
   "Category": "Accommodation",
   "Name": "The Village Sematan",
   "Full_Address": "Jalan Sungai Kilong, Sematan",
   "Street_Address": "",
   "City": "Jalan Sungai Kilong",
   "State": "Sematan",
   "Zip": "n",
   "Lat": 1.8240554,
   "Lng": 109.7540749
 },
 {
   "Category": "Accommodation",
   "Name": "Sri Peserai Homestay",
   "Full_Address": "Kilometer 6, Jalan Peserai, Johor, 83000 Batu Pahat",
   "Street_Address": "Kilometer 6,  Jalan Peserai",
   "City": "Johor",
   "State": "83000",
   "Zip": "Batu Pahat",
   "Lat": 1.8517053,
   "Lng": 102.8950881
 },
 {
   "Category": "Accommodation",
   "Name": "Sebangkoi Country Resort",
   "Full_Address": "Taman Sebangkoi, 96100 Sarikei, Sarawak",
   "Street_Address": "Taman Sebangkoi",
   "City": "96100 Sarikei",
   "State": "Sarawak",
   "Zip": "k",
   "Lat": 1.956407,
   "Lng": 111.4325618
 },
 {
   "Category": "Accommodation",
   "Name": "Bian Hua Height",
   "Full_Address": "Kapit, Sarawak",
   "Street_Address": "",
   "City": "Kapit",
   "State": "Sarawak",
   "Zip": "k",
   "Lat": 1.995115,
   "Lng": 112.933085
 },
 {
   "Category": "Accommodation",
   "Name": "Pelajau Bukit Goram Kapit",
   "Full_Address": "Kapit, Sarawak",
   "Street_Address": "",
   "City": "Kapit",
   "State": "Sarawak",
   "Zip": "k",
   "Lat": 1.995115,
   "Lng": 112.933085
 },
 {
   "Category": "Accommodation",
   "Name": "Villa Rahmah in Muar Johor",
   "Full_Address": "2, Taman Perupok, Jalan Perupok, Jalan Abdul Rahman, 84000 Muar, Johor",
   "Street_Address": "2,  Taman Perupok",
   "City": "84000 Muar",
   "State": "Johor",
   "Zip": "r",
   "Lat": 2.0227441,
   "Lng": 102.5782286
 },
 {
   "Category": "Accommodation",
   "Name": "Klinik 1Malaysia Jakar",
   "Full_Address": "Pekan Jakar, Jakar, Sarawak, 96100 Sarikei",
   "Street_Address": "Pekan Jakar,  Jakar",
   "City": "Sarawak",
   "State": "96100",
   "Zip": "Sarikei",
   "Lat": 2.0443079,
   "Lng": 111.4936068
 },
 {
   "Category": "Accommodation",
   "Name": "Pusat Internet Rumah Benjamin",
   "Full_Address": "Rantau Kemiding,, 96700 Kanowit, Sarawak",
   "Street_Address": "Rantau Kemiding,",
   "City": "96700 Kanowit",
   "State": "Sarawak",
   "Zip": "k",
   "Lat": 2.0672039,
   "Lng": 112.1498204
 },
 {
   "Category": "Accommodation",
   "Name": "Dewan Serbaguna Felda Tenggaroh 2",
   "Full_Address": "dewan serbaguna, Felda Tenggaroh 2, 86810 Mersing, Johor",
   "Street_Address": "dewan serbaguna,  Felda Tenggaroh 2",
   "City": "86810 Mersing",
   "State": "Johor",
   "Zip": "r",
   "Lat": 2.0815246,
   "Lng": 103.9414657
 },
 {
   "Category": "Accommodation",
   "Name": "Kanowit Hotel",
   "Full_Address": "96700 Kanowit, Sarawak",
   "Street_Address": "",
   "City": "96700 Kanowit",
   "State": "Sarawak",
   "Zip": "k",
   "Lat": 2.099677,
   "Lng": 112.1576782
 },
 {
   "Category": "Accommodation",
   "Name": "Anjung Batu Homestay",
   "Full_Address": "Jalan Jeti Anjung Batu, Kampung Pulai, 77300 Merlimau, Melaka",
   "Street_Address": "Jalan Jeti Anjung Batu,  Kampung Pulai",
   "City": "77300 Merlimau",
   "State": "Melaka",
   "Zip": "a",
   "Lat": 2.1463221,
   "Lng": 102.3531823
 },
 {
   "Category": "Accommodation",
   "Name": "Melaka Garden City Straits Condominium",
   "Full_Address": "Suite 3-3 Diamond Tower, Garden City Straits Condominium, Jalan Merdeka, 75000, Malacca",
   "Street_Address": "Suite 3-3 Diamond Tower,  Garden City Straits Condominium",
   "City": "75000",
   "State": "Malacca",
   "Zip": "a",
   "Lat": 2.186612,
   "Lng": 102.263084
 },
 {
   "Category": "Accommodation",
   "Name": "Melaka Island Hopping",
   "Full_Address": "Lot 2008 & 2009, Kaw. XL1, Off, Jalan Taman Kota Laksamana 3, 75200, Malacca",
   "Street_Address": "Lot 2008 & 2009,  Kaw. XL1",
   "City": "75200",
   "State": "Malacca",
   "Zip": "a",
   "Lat": 2.187548,
   "Lng": 102.241762
 },
 {
   "Category": "Accommodation",
   "Name": "Straits Courtyard Residences????",
   "Full_Address": "Lorong Hajah Maznah, Taman Kota Laksamana, 75200 Melaka",
   "Street_Address": "Lorong Hajah Maznah",
   "City": "Taman Kota Laksamana",
   "State": "75200",
   "Zip": "Melaka",
   "Lat": 2.1941666,
   "Lng": 102.2266815
 },
 {
   "Category": "Accommodation",
   "Name": "Homestay In Malacca Historical City",
   "Full_Address": "Taman Mahajaya, 75200 Malacca",
   "Street_Address": "",
   "City": "Taman Mahajaya",
   "State": "75200",
   "Zip": "Malacca",
   "Lat": 2.1971042,
   "Lng": 102.2353886
 },
 {
   "Category": "Accommodation",
   "Name": "PARKLAND MELAKA Pool View 3BR",
   "Full_Address": "75300 Malacca",
   "Street_Address": "",
   "City": "75300 Malacca",
   "State": "75300",
   "Zip": "Malacca",
   "Lat": 2.2168909,
   "Lng": 102.2413089
 },
 {
   "Category": "Accommodation",
   "Name": "Taman Pengkalan Permai, Bukit Katil.",
   "Full_Address": "75450 Bukit Katil, Malacca",
   "Street_Address": "",
   "City": "75450 Bukit Katil",
   "State": "Malacca",
   "Zip": "a",
   "Lat": 2.2280173,
   "Lng": 102.3151538
 },
 {
   "Category": "Accommodation",
   "Name": "Taman Merbok, Melaka.",
   "Full_Address": "Sekolah Jalan Datuk Palembang, 18 m6, 75150 Melaka",
   "Street_Address": "Sekolah Jalan Datuk Palembang",
   "City": "18 m6",
   "State": "75150",
   "Zip": "Melaka",
   "Lat": 2.2313624,
   "Lng": 102.283649
 },
 {
   "Category": "Accommodation",
   "Name": "Taman Lipat Kajang Perdana",
   "Full_Address": "2301, Taman Lipat Kajang Perdana, Kampung Lipat Kajang, 75460 Jasin, Melaka",
   "Street_Address": "2301,  Taman Lipat Kajang Perdana",
   "City": "75460 Jasin",
   "State": "Melaka",
   "Zip": "a",
   "Lat": 2.2730393,
   "Lng": 102.4466816
 },
 {
   "Category": "Accommodation",
   "Name": "River View Hotel",
   "Full_Address": "65, Jalan Mission, Pekan Sibu, 96000 Sibu, Sarawak",
   "Street_Address": "65,  Jalan Mission",
   "City": "96000 Sibu",
   "State": "Sarawak",
   "Zip": "k",
   "Lat": 2.2862763,
   "Lng": 111.8298246
 },
 {
   "Category": "Accommodation",
   "Name": "Taman Desa Taming Sari",
   "Full_Address": "Jalan Taming Sari, Taman Desa Duyong, 75400 Melaka",
   "Street_Address": "Jalan Taming Sari",
   "City": "Taman Desa Duyong",
   "State": "75400",
   "Zip": "Melaka",
   "Lat": 2.286701,
   "Lng": 102.1346393
 },
 {
   "Category": "Accommodation",
   "Name": "Taman Bandar Baru Tangkak, Ledang",
   "Full_Address": "84900 Tangkak, Johor",
   "Street_Address": "",
   "City": "84900 Tangkak",
   "State": "Johor",
   "Zip": "r",
   "Lat": 2.291083,
   "Lng": 102.5778192
 },
 {
   "Category": "Accommodation",
   "Name": "Kolam Puteri Air Terjun Ledang",
   "Full_Address": "Unnamed Road, 84900, Johor",
   "Street_Address": "Unnamed Road",
   "City": "84900",
   "State": "Johor",
   "Zip": "r",
   "Lat": 2.3553358,
   "Lng": 102.6315948
 },
 {
   "Category": "Accommodation",
   "Name": "BILIK SEWA D'Intekma @ Uitm Lendu (LELAKI SHJ)",
   "Full_Address": "Taman Intekma, 78000 Alor Gajah, Malacca",
   "Street_Address": "Taman Intekma",
   "City": "78000 Alor Gajah",
   "State": "Malacca",
   "Zip": "a",
   "Lat": 2.3603519,
   "Lng": 102.1787424
 },
 {
   "Category": "Accommodation",
   "Name": "Jeti Pasir Panjang",
   "Full_Address": "Jalan Kampung Teluk, 71250 Pasir Panjang, Negeri Sembilan",
   "Street_Address": "Jalan Kampung Teluk",
   "City": "71250 Pasir Panjang",
   "State": "Negeri",
   "Zip": "Sembilan",
   "Lat": 2.4160016,
   "Lng": 101.9423918
 },
 {
   "Category": "Accommodation",
   "Name": "Jeti Telok Pelandok 2",
   "Full_Address": "Kampung Baru Telok Pelanduk, 71050 Port Dickson, Negeri Sembilan",
   "Street_Address": "Kampung Baru Telok Pelanduk",
   "City": "71050 Port Dickson",
   "State": "Negeri",
   "Zip": "Sembilan",
   "Lat": 2.4183352,
   "Lng": 101.8857871
 },
 {
   "Category": "Accommodation",
   "Name": "Jeti Telok Pelandok 1",
   "Full_Address": "Kampung Baru Telok Pelanduk, 71050 Port Dickson, Negeri Sembilan",
   "Street_Address": "Kampung Baru Telok Pelanduk",
   "City": "71050 Port Dickson",
   "State": "Negeri",
   "Zip": "Sembilan",
   "Lat": 2.4184528,
   "Lng": 101.8846636
 },
 {
   "Category": "Accommodation",
   "Name": "Hicom Pegoh Industrial Park, Melaka",
   "Full_Address": "78000 Alor Gajah, Malacca",
   "Street_Address": "",
   "City": "78000 Alor Gajah",
   "State": "Malacca",
   "Zip": "a",
   "Lat": 2.42234,
   "Lng": 102.20684
 },
 {
   "Category": "Accommodation",
   "Name": "A'Famosa Resort Condostay Malacca",
   "Full_Address": "A'Famosa Resort, Jalan Kemus / Sempang Ampat, Simpang Ampat, 78000 Alor Gajah, Malacca",
   "Street_Address": "A'Famosa Resort,  Jalan Kemus / Sempang Ampat",
   "City": "78000 Alor Gajah",
   "State": "Malacca",
   "Zip": "a",
   "Lat": 2.445283,
   "Lng": 102.205799
 },
 {
   "Category": "Accommodation",
   "Name": "Kem Wawasan Negara Alor Gajah",
   "Full_Address": "Jalan Hutan Percha, 78000 Alor Gajah, Malacca",
   "Street_Address": "Jalan Hutan Percha",
   "City": "78000 Alor Gajah",
   "State": "Malacca",
   "Zip": "a",
   "Lat": 2.4579084,
   "Lng": 102.2890672
 },
 {
   "Category": "Accommodation",
   "Name": "Resort Lautan Biru Youth Camp Site",
   "Full_Address": "Kampung Makam, 86800 Mersing, Johor",
   "Street_Address": "Kampung Makam",
   "City": "86800 Mersing",
   "State": "Johor",
   "Zip": "r",
   "Lat": 2.4637958,
   "Lng": 103.8281447
 },
 {
   "Category": "Accommodation",
   "Name": "Segamat toastmasters",
   "Full_Address": "40, Jalan Nagasari, Bandar Segamat Baru, 85000 Segamat, Johor",
   "Street_Address": "40,  Jalan Nagasari",
   "City": "85000 Segamat",
   "State": "Johor",
   "Zip": "r",
   "Lat": 2.4936881,
   "Lng": 102.852551
 },
 {
   "Category": "Accommodation",
   "Name": "Gurdwara Sahib Segamat",
   "Full_Address": "Kampung Gubah, 85000 Segamat District, Johor",
   "Street_Address": "Kampung Gubah",
   "City": "85000 Segamat District",
   "State": "Johor",
   "Zip": "r",
   "Lat": 2.5106313,
   "Lng": 102.8173462
 },
 {
   "Category": "Accommodation",
   "Name": "Taman Akasia Kundur",
   "Full_Address": "3, N9, Kampung Kundur Hilir, 71400 Rembau, Negeri Sembilan",
   "Street_Address": "3,  N9",
   "City": "71400 Rembau",
   "State": "Negeri",
   "Zip": "Sembilan",
   "Lat": 2.5215116,
   "Lng": 102.03602
 },
 {
   "Category": "Accommodation",
   "Name": "Taman Fong Jang Park",
   "Full_Address": "12A, Jalan Buloh Kasap, Kampung Batu Lintang, 85000 Segamat, Johor",
   "Street_Address": "12A,  Jalan Buloh Kasap",
   "City": "85000 Segamat",
   "State": "Johor",
   "Zip": "r",
   "Lat": 2.529734,
   "Lng": 102.8079338
 },
 {
   "Category": "Accommodation",
   "Name": "Cmk@Lexis Private Port Dickson",
   "Full_Address": "Bt 2, Jalan Seremban, tanjung gemok, 71000 Port Dickson, Negeri Sembilan",
   "Street_Address": "Bt 2,  Jalan Seremban",
   "City": "71000 Port Dickson",
   "State": "Negeri",
   "Zip": "Sembilan",
   "Lat": 2.5504738,
   "Lng": 101.7966748
 },
 {
   "Category": "Accommodation",
   "Name": "Rimbunan Kaseh Rembau",
   "Full_Address": "Unnamed Rd, 71300 Rembau, Negeri Sembilan",
   "Street_Address": "Unnamed Rd",
   "City": "71300 Rembau",
   "State": "Negeri",
   "Zip": "Sembilan",
   "Lat": 2.5776553,
   "Lng": 102.0819696
 },
 {
   "Category": "Accommodation",
   "Name": "Yp plantation holdings sdn bhd",
   "Full_Address": "26820 Kuala Rompin, Pahang",
   "Street_Address": "",
   "City": "26820 Kuala Rompin",
   "State": "Pahang",
   "Zip": "g",
   "Lat": 2.5864008,
   "Lng": 103.5110516
 },
 {
   "Category": "Accommodation",
   "Name": "Wisma Dato' Rais",
   "Full_Address": "Jln Seremban - Tampin, 71300 Rembau, Negeri Sembilan",
   "Street_Address": "Jln Seremban - Tampin",
   "City": "71300 Rembau",
   "State": "Negeri",
   "Zip": "Sembilan",
   "Lat": 2.5925213,
   "Lng": 102.0894396
 },
 {
   "Category": "Accommodation",
   "Name": "Bandar Springhill",
   "Full_Address": "55, Jalan Springhill 9/8, 71010 Port Dickson, Negeri Sembilan",
   "Street_Address": "55,  Jalan Springhill 9/8",
   "City": "71010 Port Dickson",
   "State": "Negeri",
   "Zip": "Sembilan",
   "Lat": 2.594272,
   "Lng": 101.8590056
 },
 {
   "Category": "Accommodation",
   "Name": "Homestay D' Rembau",
   "Full_Address": "No.230, Jalan Persiaran 5, Taman Seri Rembau, Rembau, Negeri Sembilan",
   "Street_Address": "No.230,  Jalan Persiaran 5",
   "City": "Rembau",
   "State": "Negeri",
   "Zip": "Sembilan",
   "Lat": 2.5966146,
   "Lng": 102.0960195
 },
 {
   "Category": "Accommodation",
   "Name": "Taman Seri Rembau",
   "Full_Address": "Lorong Tsr 40, 71300 Rembau, Negeri Sembilan",
   "Street_Address": "Lorong Tsr 40",
   "City": "71300 Rembau",
   "State": "Negeri",
   "Zip": "Sembilan",
   "Lat": 2.599138,
   "Lng": 102.0971558
 },
 {
   "Category": "Accommodation",
   "Name": "Bagan Lalang Beach Resort",
   "Full_Address": "Bagan Lalang, 43950 Sungai Pelek, Selangor",
   "Street_Address": "Bagan Lalang",
   "City": "43950 Sungai Pelek",
   "State": "Selangor",
   "Zip": "r",
   "Lat": 2.606055,
   "Lng": 101.6899538
 },
 {
   "Category": "Accommodation",
   "Name": "Camar Laut (LKIM)",
   "Full_Address": "Kampung Bagan Lalang, 13400",
   "Street_Address": "",
   "City": "Kampung Bagan Lalang",
   "State": "13400",
   "Zip": "0",
   "Lat": 2.6073136,
   "Lng": 101.6901767
 },
 {
   "Category": "Accommodation",
   "Name": "Dewan Orang Ramai Jelai 3",
   "Full_Address": "73400 Gemas, Negeri Sembilan",
   "Street_Address": "",
   "City": "73400 Gemas",
   "State": "Negeri",
   "Zip": "Sembilan",
   "Lat": 2.650236,
   "Lng": 102.493169
 },
 {
   "Category": "Accommodation",
   "Name": "Kelong Acheh Resort",
   "Full_Address": "South China Sea, Johor",
   "Street_Address": "",
   "City": "South China Sea",
   "State": "Johor",
   "Zip": "r",
   "Lat": 2.6659763,
   "Lng": 103.7618321
 },
 {
   "Category": "Accommodation",
   "Name": "Ree's Playground",
   "Full_Address": "Jalan Hijayu 3/19, 70300 Siliau, Negeri Sembilan",
   "Street_Address": "Jalan Hijayu 3/19",
   "City": "70300 Siliau",
   "State": "Negeri",
   "Zip": "Sembilan",
   "Lat": 2.6722536,
   "Lng": 101.8578191
 },
 {
   "Category": "Accommodation",
   "Name": "Taman Rasa Sayang Selaru",
   "Full_Address": "Taman Rasa Sayang Selaru, Taman Desa Permai Selaru, 72000 Kuala Pilah, Negeri Sembilan",
   "Street_Address": "Taman Rasa Sayang Selaru,  Taman Desa Permai Selaru",
   "City": "72000 Kuala Pilah",
   "State": "Negeri",
   "Zip": "Sembilan",
   "Lat": 2.6822909,
   "Lng": 102.2769132
 },
 {
   "Category": "Accommodation",
   "Name": "taman selasih",
   "Full_Address": "253, Jalan TS 11, Kampung Gemuroh, 72000 Kuala Pilah, Negeri Sembilan",
   "Street_Address": "253,  Jalan TS 11",
   "City": "72000 Kuala Pilah",
   "State": "Negeri",
   "Zip": "Sembilan",
   "Lat": 2.7222545,
   "Lng": 102.238839
 },
 {
   "Category": "Accommodation",
   "Name": "Pilah Hillstay",
   "Full_Address": "Unnamed Road, Taman Fatimah, 72000 Kuala Pilah, Negeri Sembilan",
   "Street_Address": "Unnamed Road,  Taman Fatimah",
   "City": "72000 Kuala Pilah",
   "State": "Negeri",
   "Zip": "Sembilan",
   "Lat": 2.7495479,
   "Lng": 102.2371583
 },
 {
   "Category": "Accommodation",
   "Name": "Desa Salak Maju",
   "Full_Address": "Salak Tinggi, 43900 Sepang, Selangor",
   "Street_Address": "Salak Tinggi",
   "City": "43900 Sepang",
   "State": "Selangor",
   "Zip": "r",
   "Lat": 2.797799,
   "Lng": 101.7452573
 },
 {
   "Category": "Accommodation",
   "Name": "Dewan Serbaguna Desa Bestari",
   "Full_Address": "1, Jalan Desa Bestari 8, Desa Bestari, 43900 Sepang, Selangor",
   "Street_Address": "1,  Jalan Desa Bestari 8",
   "City": "43900 Sepang",
   "State": "Selangor",
   "Zip": "r",
   "Lat": 2.8011434,
   "Lng": 101.752231
 },
 {
   "Category": "Accommodation",
   "Name": "Plassid Villa",
   "Full_Address": "Seremban, Negeri Sembilan",
   "Street_Address": "",
   "City": "Seremban",
   "State": "Negeri",
   "Zip": "Sembilan",
   "Lat": 2.8065618,
   "Lng": 102.0180536
 },
 {
   "Category": "Accommodation",
   "Name": "Bary Inn, KLIA and KLIA2(????????KLIA2????)",
   "Full_Address": "??:Jalan 4, ?????? Selangor, Sepang, Bandar Baru Salak Tinggi????: 43900",
   "Street_Address": "??:Jalan 4,  ?????? Selangor",
   "City": "Sepang",
   "State": "Bandar",
   "Zip": "Baru Salak Tinggi????: 43900",
   "Lat": 2.8066758,
   "Lng": 101.7228775
 },
 {
   "Category": "Accommodation",
   "Name": "Long Jaik",
   "Full_Address": "Belaga, Sarawak",
   "Street_Address": "",
   "City": "Belaga",
   "State": "Sarawak",
   "Zip": "k",
   "Lat": 2.8079925,
   "Lng": 114.318366
 },
 {
   "Category": "Accommodation",
   "Name": "Hotel Bahau",
   "Full_Address": "8;;11-1, Lorong 1, Taman Acbe, 72100 Bahau, Negeri Sembilan",
   "Street_Address": "8;;11-1,  Lorong 1",
   "City": "72100 Bahau",
   "State": "Negeri",
   "Zip": "Sembilan",
   "Lat": 2.808911,
   "Lng": 102.393509
 },
 {
   "Category": "Accommodation",
   "Name": "Stor Sitaan Majlis Perbandaran Sepang",
   "Full_Address": "30, Jalan ST 1d/7, Bandar Baru Salak Tinggi, 43900 Sepang, Selangor",
   "Street_Address": "30,  Jalan ST 1d/7",
   "City": "43900 Sepang",
   "State": "Selangor",
   "Zip": "r",
   "Lat": 2.809059,
   "Lng": 101.738848
 },
 {
   "Category": "Accommodation",
   "Name": "SMA Rompin",
   "Full_Address": "26800 Kuala Rompin, Pahang",
   "Street_Address": "",
   "City": "26800 Kuala Rompin",
   "State": "Pahang",
   "Zip": "g",
   "Lat": 2.8187752,
   "Lng": 103.4431488
 },
 {
   "Category": "Accommodation",
   "Name": "Taman Ixora",
   "Full_Address": "Bandar Baru Salak Tinggi, 43900 Sepang, Selangor",
   "Street_Address": "Bandar Baru Salak Tinggi",
   "City": "43900 Sepang",
   "State": "Selangor",
   "Zip": "r",
   "Lat": 2.819684,
   "Lng": 101.7336841
 },
 {
   "Category": "Accommodation",
   "Name": "Klinik 1MALAYSIA Taman Semarak 2 Nilai",
   "Full_Address": "PT 5742 (Ting. Bwh), Jalan TS 2/1E, Taman Semarak, 71800",
   "Street_Address": "PT 5742 (Ting. Bwh),  Jalan TS 2/1E",
   "City": "Taman Semarak",
   "State": "71800",
   "Zip": "0",
   "Lat": 2.82083,
   "Lng": 101.8169999
 },
 {
   "Category": "Accommodation",
   "Name": "Kompleks Rakan Muda Sukan Air Rompin, Pahang",
   "Full_Address": "26800 Kuala Rompin, Pahang",
   "Street_Address": "",
   "City": "26800 Kuala Rompin",
   "State": "Pahang",
   "Zip": "g",
   "Lat": 2.823576,
   "Lng": 103.479212
 },
 {
   "Category": "Accommodation",
   "Name": "Taman Dahlia,Bandar Baru Salak Tinggi,Sepang,Selangor",
   "Full_Address": "28, Jalan Dahlia 2/1, Bandar Baru Salak Tinggi, 43900 Sepang, Selangor",
   "Street_Address": "28,  Jalan Dahlia 2/1",
   "City": "43900 Sepang",
   "State": "Selangor",
   "Zip": "r",
   "Lat": 2.8319951,
   "Lng": 101.7225385
 },
 {
   "Category": "Accommodation",
   "Name": "Sinar Apartment",
   "Full_Address": "43900 Sepang, Selangor",
   "Street_Address": "",
   "City": "43900 Sepang",
   "State": "Selangor",
   "Zip": "r",
   "Lat": 2.8408205,
   "Lng": 101.7226712
 },
 {
   "Category": "Accommodation",
   "Name": "Jed playground",
   "Full_Address": "Kampung Dengkil, 43800 Dengkil, Selangor",
   "Street_Address": "Kampung Dengkil",
   "City": "43800 Dengkil",
   "State": "Selangor",
   "Zip": "r",
   "Lat": 2.8606875,
   "Lng": 101.6698971
 },
 {
   "Category": "Accommodation",
   "Name": "Kampung Batu 10 Kebun Baharu",
   "Full_Address": "batu 10, Jalan Kebun Baru, Kampung Kebun Baru, 42500 Telok Panglima Garang, Selangor",
   "Street_Address": "batu 10,  Jalan Kebun Baru",
   "City": "42500 Telok Panglima Garang",
   "State": "Selangor",
   "Zip": "r",
   "Lat": 2.9122297,
   "Lng": 101.4880832
 },
 {
   "Category": "Accommodation",
   "Name": "Villa Lake Garden",
   "Full_Address": "39, Jalan Temoleh P8/7, Presint 8, 62500 Putrajaya, Wilayah Persekutuan Putrajaya",
   "Street_Address": "39,  Jalan Temoleh P8/7",
   "City": "62500 Putrajaya",
   "State": "Wilayah",
   "Zip": "Persekutuan Putrajaya",
   "Lat": 2.927292,
   "Lng": 101.6827906
 },
 {
   "Category": "Accommodation",
   "Name": "Periwinkle Bandar Rimbayu",
   "Full_Address": "3F, 17, 13, Jln Flora 3G, Bandar Rimbayu, 41200, Selangor",
   "Street_Address": "3F,  17",
   "City": "41200",
   "State": "Selangor",
   "Zip": "r",
   "Lat": 2.9346376,
   "Lng": 101.538425
 },
 {
   "Category": "Accommodation",
   "Name": "Muslimah Beauty Saloon & Spa",
   "Full_Address": "16a, Jalan P9 B/1, Presint 9, 62250 Putrajaya, Wilayah Persekutuan Putrajaya",
   "Street_Address": "16a,  Jalan P9 B/1",
   "City": "62250 Putrajaya",
   "State": "Wilayah",
   "Zip": "Persekutuan Putrajaya",
   "Lat": 2.9381866,
   "Lng": 101.6723249
 },
 {
   "Category": "Accommodation",
   "Name": "Perumahan Penjawat Awam Fasa 10",
   "Full_Address": "Jalan P9c, Presint 9, 62250 Putrajaya, Wilayah Persekutuan Putrajaya",
   "Street_Address": "Jalan P9c,  Presint 9",
   "City": "62250 Putrajaya",
   "State": "Wilayah",
   "Zip": "Persekutuan Putrajaya",
   "Lat": 2.9386008,
   "Lng": 101.6762088
 },
 {
   "Category": "Accommodation",
   "Name": "Dewan Serbaguna Presint 8",
   "Full_Address": "Presint 8, 62250 Putrajaya",
   "Street_Address": "",
   "City": "Presint 8",
   "State": "62250",
   "Zip": "Putrajaya",
   "Lat": 2.9394277,
   "Lng": 101.6818551
 },
 {
   "Category": "Accommodation",
   "Name": "Rumah Transit Bph",
   "Full_Address": "Jalan P11j, Presint 11, 62300 Putrajaya, Wilayah Persekutuan Putrajaya",
   "Street_Address": "Jalan P11j,  Presint 11",
   "City": "62300 Putrajaya",
   "State": "Wilayah",
   "Zip": "Persekutuan Putrajaya",
   "Lat": 2.9516401,
   "Lng": 101.6771213
 },
 {
   "Category": "Accommodation",
   "Name": "Palma residence",
   "Full_Address": "Presint 11, 62300 Putrajaya",
   "Street_Address": "",
   "City": "Presint 11",
   "State": "62300",
   "Zip": "Putrajaya",
   "Lat": 2.9670111,
   "Lng": 101.6739855
 },
 {
   "Category": "Accommodation",
   "Name": "Surau Plaza Tol LDP Selatan Arah Putrajaya",
   "Full_Address": "47100 Puchong, Selangor",
   "Street_Address": "",
   "City": "47100 Puchong",
   "State": "Selangor",
   "Zip": "r",
   "Lat": 2.9823048,
   "Lng": 101.6367135
 },
 {
   "Category": "Accommodation",
   "Name": "TAMAN SEMENYIH PERMATA",
   "Full_Address": "Jln Semenyih Permata 6, Taman Semenyih Permata, 43500 Semenyih, Selangor",
   "Street_Address": "Jln Semenyih Permata 6,  Taman Semenyih Permata",
   "City": "43500 Semenyih",
   "State": "Selangor",
   "Zip": "r",
   "Lat": 2.983839,
   "Lng": 101.8647197
 },
 {
   "Category": "Accommodation",
   "Name": "Kajang Hospital Staff Quarters",
   "Full_Address": "1, Jalan SC 1, Pusat Perindustrian Sungai Chua, 43000 Kajang, Selangor",
   "Street_Address": "1,  Jalan SC 1",
   "City": "43000 Kajang",
   "State": "Selangor",
   "Zip": "r",
   "Lat": 2.9850229,
   "Lng": 101.7735397
 },
 {
   "Category": "Accommodation",
   "Name": "KebunDen HomeStay",
   "Full_Address": "Jalan Puyuh, Cheras, 43200 Cheras, Selangor",
   "Street_Address": "Jalan Puyuh,  Cheras",
   "City": "43200 Cheras",
   "State": "Selangor",
   "Zip": "r",
   "Lat": 3.0592543,
   "Lng": 101.7784984
 },
 {
   "Category": "Accommodation",
   "Name": "Sunway Utama",
   "Full_Address": "47500, 2-12, Jalan PJS 9/4a, Bandar Sunway, 47500 Petaling Jaya, Selangor",
   "Street_Address": "47500,  2-12",
   "City": "47500 Petaling Jaya",
   "State": "Selangor",
   "Zip": "r",
   "Lat": 3.0653426,
   "Lng": 101.6125901
 },
 {
   "Category": "Accommodation",
   "Name": "Kediaman Rasmi Dato' Menteri Besar Selangor",
   "Full_Address": "Pejabat Menteri Besar Selangor, Kediaman Rasmi Dato, Jalan Permata 7/1, Seksyen 7, 40000 Shah Alam, Selangor",
   "Street_Address": "Pejabat Menteri Besar Selangor,  Kediaman Rasmi Dato",
   "City": "40000 Shah Alam",
   "State": "Selangor",
   "Zip": "r",
   "Lat": 3.0874478,
   "Lng": 101.5021558
 },
 {
   "Category": "Accommodation",
   "Name": "Tiara Hatamas Apartment",
   "Full_Address": "43200 Cheras, Selangor",
   "Street_Address": "",
   "City": "43200 Cheras",
   "State": "Selangor",
   "Zip": "r",
   "Lat": 3.0965521,
   "Lng": 101.7650235
 },
 {
   "Category": "Accommodation",
   "Name": "desa pinggiran delima",
   "Full_Address": "Jalan Pinggiran Delima 1/7, Taman Pinggiran Delima, 43100 Hulu Langat, Selangor",
   "Street_Address": "Jalan Pinggiran Delima 1/7,  Taman Pinggiran Delima",
   "City": "43100 Hulu Langat",
   "State": "Selangor",
   "Zip": "r",
   "Lat": 3.1216383,
   "Lng": 101.8090744
 },
 {
   "Category": "Accommodation",
   "Name": "Zafuan Villa",
   "Full_Address": "Unnamed Road, 43100, Selangor",
   "Street_Address": "Unnamed Road",
   "City": "43100",
   "State": "Selangor",
   "Zip": "r",
   "Lat": 3.1248602,
   "Lng": 101.8335876
 },
 {
   "Category": "Accommodation",
   "Name": "Archdiocesan Pastoral Centre (APC)",
   "Full_Address": "No. 5, Jalan Robertson, (off Jalan Pudu), Wilayah Persekutuan Kuala Lumpur, 50150 Kuala Lumpur",
   "Street_Address": "No. 5,  Jalan Robertson",
   "City": "Wilayah Persekutuan Kuala Lumpur",
   "State": "50150",
   "Zip": "Kuala Lumpur",
   "Lat": 3.144255,
   "Lng": 101.704032
 },
 {
   "Category": "Accommodation",
   "Name": "Impiana On The Waterfront Condominium",
   "Full_Address": "Jalan Ampang Ulu, Kampung Berembang, 55000 Kuala Lumpur, Selangor",
   "Street_Address": "Jalan Ampang Ulu,  Kampung Berembang",
   "City": "55000 Kuala Lumpur",
   "State": "Selangor",
   "Zip": "r",
   "Lat": 3.160378,
   "Lng": 101.7497794
 },
 {
   "Category": "Accommodation",
   "Name": "Bee River Home",
   "Full_Address": "43100 Hulu Langat, Selangor",
   "Street_Address": "",
   "City": "43100 Hulu Langat",
   "State": "Selangor",
   "Zip": "r",
   "Lat": 3.1604091,
   "Lng": 101.8273951
 },
 {
   "Category": "Accommodation",
   "Name": "Agrotek Garden Resort",
   "Full_Address": "Batu 14 1/2, Kampung Sungai Semungkis, 43100 Hulu Langat, Selangor",
   "Street_Address": "Batu 14 1/2,  Kampung Sungai Semungkis",
   "City": "43100 Hulu Langat",
   "State": "Selangor",
   "Zip": "r",
   "Lat": 3.1626591,
   "Lng": 101.8268268
 },
 {
   "Category": "Accommodation",
   "Name": "Taman Kemena Sutera",
   "Full_Address": "Sutera,, Jln Kemena, 97000 Bintulu, Sarawak",
   "Street_Address": "Sutera,",
   "City": "97000 Bintulu",
   "State": "Sarawak",
   "Zip": "k",
   "Lat": 3.1836778,
   "Lng": 113.0664286
 },
 {
   "Category": "Accommodation",
   "Name": "Shin Yang Chemical Sdn Bhd",
   "Full_Address": "97000 No 231, 2nd Floor, Phase 3, Parkcity Commerce Square, Jln Tun Ahmad Zaidi Bintulu SARAWAK, 97000",
   "Street_Address": "97000 No 231,  2nd Floor",
   "City": "Jln Tun Ahmad Zaidi Bintulu SARAWAK",
   "State": "97000",
   "Zip": "0",
   "Lat": 3.19057,
   "Lng": 113.09
 },
 {
   "Category": "Accommodation",
   "Name": "Park Avenue Condominium",
   "Full_Address": "Jalan PJU 10/1, Damansara Damai, 47830 Petaling Jaya, Selangor",
   "Street_Address": "Jalan PJU 10/1,  Damansara Damai",
   "City": "47830 Petaling Jaya",
   "State": "Selangor",
   "Zip": "r",
   "Lat": 3.1919001,
   "Lng": 101.5933574
 },
 {
   "Category": "Accommodation",
   "Name": "Imperial Suites, Bintulu Beach Resort Condominium",
   "Full_Address": "Bintulu Beach Resort Condominium, Lot 3218, 3630 & 3631, Jalan Tanjung Batu, 97000 Bintulu, Sarawak",
   "Street_Address": "Bintulu Beach Resort Condominium,  Lot 3218",
   "City": "97000 Bintulu",
   "State": "Sarawak",
   "Zip": "k",
   "Lat": 3.2013217,
   "Lng": 113.0474301
 },
 {
   "Category": "Accommodation",
   "Name": "DD Permata Sdn. Bhd.",
   "Full_Address": "97000 Bintulu, Sarawak",
   "Street_Address": "",
   "City": "97000 Bintulu",
   "State": "Sarawak",
   "Zip": "k",
   "Lat": 3.201766,
   "Lng": 113.058683
 },
 {
   "Category": "Accommodation",
   "Name": "Hevea Kemensah",
   "Full_Address": "Ulu Kelang, 68000 Ampang Jaya, Selangor",
   "Street_Address": "Ulu Kelang",
   "City": "68000 Ampang Jaya",
   "State": "Selangor",
   "Zip": "r",
   "Lat": 3.2196011,
   "Lng": 101.7550368
 },
 {
   "Category": "Accommodation",
   "Name": "Casmaria Apartment - Block F",
   "Full_Address": "Casmaria Apartment Block F, Taman Samudra, 68100 Batu Caves, Selangor",
   "Street_Address": "Casmaria Apartment Block F,  Taman Samudra",
   "City": "68100 Batu Caves",
   "State": "Selangor",
   "Zip": "r",
   "Lat": 3.2320298,
   "Lng": 101.6934628
 },
 {
   "Category": "Accommodation",
   "Name": "Kuarters Institusi Pendidikan Kidurong, Jalan Tanjung Kidurong",
   "Full_Address": "Jalan Tanjung, Kidurong Height, 97000 Bintulu, Sarawak",
   "Street_Address": "Jalan Tanjung,  Kidurong Height",
   "City": "97000 Bintulu",
   "State": "Sarawak",
   "Zip": "k",
   "Lat": 3.2360715,
   "Lng": 113.0814888
 },
 {
   "Category": "Accommodation",
   "Name": "Kolej Kediaman Perubatan UiTM Selayang",
   "Full_Address": "68100 Batu Caves, Selangor",
   "Street_Address": "",
   "City": "68100 Batu Caves",
   "State": "Selangor",
   "Zip": "r",
   "Lat": 3.2451759,
   "Lng": 101.6497143
 },
 {
   "Category": "Accommodation",
   "Name": "Gelanggang futsal selayang indah",
   "Full_Address": "No. 1064, Jalan 2, Kampung Selayang Indah, 68100 Batu Caves, Selangor",
   "Street_Address": "No. 1064,  Jalan 2",
   "City": "68100 Batu Caves",
   "State": "Selangor",
   "Zip": "r",
   "Lat": 3.2457104,
   "Lng": 101.6606485
 },
 {
   "Category": "Accommodation",
   "Name": "Dewan Serbaguna Taman Jasa Utama",
   "Full_Address": "Jalan Jasa Utama 1, Taman Jasa Utama, 68100 Batu Caves, Selangor",
   "Street_Address": "Jalan Jasa Utama 1,  Taman Jasa Utama",
   "City": "68100 Batu Caves",
   "State": "Selangor",
   "Zip": "r",
   "Lat": 3.2697791,
   "Lng": 101.6816348
 },
 {
   "Category": "Accommodation",
   "Name": "Templer Park Golf & Resort Sdn. Bhd.",
   "Full_Address": "No. 1, Templer Park Resort, 48000, Rawang, Selangor",
   "Street_Address": "No. 1,  Templer Park Resort",
   "City": "Rawang",
   "State": "Selangor",
   "Zip": "r",
   "Lat": 3.2990703,
   "Lng": 101.6318557
 },
 {
   "Category": "Accommodation",
   "Name": "Alcedo Saujana Rawang",
   "Full_Address": "Jln Barat, Saujana Rawang, 48000 Rawang, Selangor",
   "Street_Address": "Jln Barat,  Saujana Rawang",
   "City": "48000 Rawang",
   "State": "Selangor",
   "Zip": "r",
   "Lat": 3.3351986,
   "Lng": 101.5145718
 },
 {
   "Category": "Accommodation",
   "Name": "TAMAN MALAWATI CERGAS",
   "Full_Address": "NO:63,JALAN MALAWATI CERGAS 2 , TAMAN MALAWATI CERGAS, 45000 Kuala Selangor",
   "Street_Address": "NO:63, JALAN MALAWATI CERGAS 2",
   "City": "TAMAN MALAWATI CERGAS",
   "State": "45000",
   "Zip": "Kuala Selangor",
   "Lat": 3.3365594,
   "Lng": 101.2503672
 },
 {
   "Category": "Accommodation",
   "Name": "Air Terjun Serendah Selangor",
   "Full_Address": "Air Terjun, 48200 Serendah, Selangor",
   "Street_Address": "Air Terjun",
   "City": "48200 Serendah",
   "State": "Selangor",
   "Zip": "r",
   "Lat": 3.366033,
   "Lng": 101.636789
 },
 {
   "Category": "Accommodation",
   "Name": "Dusun Eco Resort",
   "Full_Address": "Karak Expy, 28700 Bentong, Pahang",
   "Street_Address": "Karak Expy",
   "City": "28700 Bentong",
   "State": "Pahang",
   "Zip": "g",
   "Lat": 3.4268421,
   "Lng": 101.8744028
 },
 {
   "Category": "Accommodation",
   "Name": "Homestay Arissa Temerloh",
   "Full_Address": "2, Persiaran Damai 3, Damai Court, 28000 Temerloh, Pahang",
   "Street_Address": "2,  Persiaran Damai 3",
   "City": "28000 Temerloh",
   "State": "Pahang",
   "Zip": "g",
   "Lat": 3.4397074,
   "Lng": 102.4176112
 },
 {
   "Category": "Accommodation",
   "Name": "Tamu Hill Park Batang Kali",
   "Full_Address": "no 1 tamu hill park, 25, Jalan Mahagoni 1c/1, Pekan Batang Kali, 44300 Batang Kali, Selangor",
   "Street_Address": "no 1 tamu hill park,  25",
   "City": "44300 Batang Kali",
   "State": "Selangor",
   "Zip": "r",
   "Lat": 3.4576346,
   "Lng": 101.6676055
 },
 {
   "Category": "Accommodation",
   "Name": "Taman Sri Kerinau Paya Pulai",
   "Full_Address": "Taman Sri Kerinau paya pulai, 28000 temerloh, pahang",
   "Street_Address": "Taman Sri Kerinau paya pulai",
   "City": "28000 temerloh",
   "State": "pahang",
   "Zip": "g",
   "Lat": 3.4584077,
   "Lng": 102.4638152
 },
 {
   "Category": "Accommodation",
   "Name": "D'ambang Resort",
   "Full_Address": "Jalan Jaafar, Kampung Batu Udang, 26600 Pekan, Pahang",
   "Street_Address": "Jalan Jaafar,  Kampung Batu Udang",
   "City": "26600 Pekan",
   "State": "Pahang",
   "Zip": "g",
   "Lat": 3.4699315,
   "Lng": 103.0116615
 },
 {
   "Category": "Zoo",
   "Name": "Kemaman Zoo and Recreation Park",
   "Full_Address": "Majlis Perbandaran Kemaman, Kampung Tabuan, 24000 Kemaman, Terengganu",
   "Street_Address": "Majlis Perbandaran Kemaman,  Kampung Tabuan",
   "City": "24000 Kemaman",
   "State": "Terengganu",
   "Zip": "u",
   "Lat": 4.2957378,
   "Lng": 103.3859831
 },
 {
   "Category": "Youth organization",
   "Name": "Methodist Youth Centre (SCAC)",
   "Full_Address": "No.1, Lorong Harmorni 4, Jln Harmoni, 96000 Sibu, Sarawak",
   "Street_Address": "No.1,  Lorong Harmorni 4",
   "City": "96000 Sibu",
   "State": "Sarawak",
   "Zip": "k",
   "Lat": 2.2841433,
   "Lng": 111.8427837
 },
 {
   "Category": "Yoga studio",
   "Name": "Yemaya Life Sg. Petani - Taman Lagenda Indah",
   "Full_Address": "No.17, Tingkat Atas, Jalan Pahlawan, 08000 Sungai Petani, Kedah",
   "Street_Address": "No.17,  Tingkat Atas",
   "City": "08000 Sungai Petani",
   "State": "Kedah",
   "Zip": "h",
   "Lat": 5.6603848,
   "Lng": 100.4959908
 }
]